     2.11           OBSERVATION DATA    M (MIXED)           RINEX VERSION / TYPE
teqc  2017Sep15     dlseng              20171129 03:31:26UTCPGM / RUN BY / DATE
Linux 2.6.32-573.12.1.x86_64|x86_64|gcc|Linux 64|=+         COMMENT
teqc  2012Apr13     CORS/NGS/NOAA       20120615 02:15:38UTCCOMMENT
Solaris x86 5.10|AMD64|cc SC5.8 -xarch=amd64|=+|=+          COMMENT
teqc  2012Apr13     CORS-ADM Account    20120615 02:15:25UTCCOMMENT
teqc  2012Apr13     CORS/NGS/NOAA       20120615 02:15:20UTCCOMMENT
0000.000      (antenna height)                              COMMENT
BIT 2 OF LLI FLAGS DATA COLLECTED UNDER A/S CONDITION       COMMENT
 SNR is mapped to RINEX snr flag value [0-9]                COMMENT
  L1 & L2: min(max(int(snr_dBHz/6), 0), 9)                  COMMENT
WUHN                                                        MARKER NAME
21602M001                                                   MARKER NUMBER
Prof. Guigen Nie    Wuhan University                        OBSERVER / AGENCY
4918K35018          TRIMBLE NETR8       NP 4.16 / SP 3.59   REC # / TYPE / VERS
4852A62817          TRM59800.00     ENCL                    ANT # / TYPE
 -2267750.4463  5009156.7914  3221292.3024                  APPROX POSITION XYZ
        2.3612       -0.0022       -0.0094                  ANTENNA: DELTA H/E/N
     1     1                                                WAVELENGTH FACT L1/2
     7    L1    L2    C1    P1    P2    S1    S2            # / TYPES OF OBSERV
    30.0000                                                 INTERVAL
teqc windowed: start @ 2012 Jun 14 00:00:00.000             COMMENT
teqc windowed: delta = 86400.000 sec                        COMMENT
    15                                                      LEAP SECONDS
Forced Modulo Decimation to 30 seconds                      COMMENT
teqc edited: all GLONASS satellites excluded                COMMENT
  2012     6    14     0     0    0.0000000     GPS         TIME OF FIRST OBS
                                                            END OF HEADER
 12  6 14  0  0  0.0000000  0  9G21G27G09G25G18G15G12G22G14
 115947630.580 7  90348790.57645  22064095.016                    22064104.152
        45.300          32.000
 122327477.366 7  95320148.93345  23278144.711                    23278155.531
        43.600          30.300
 110750573.805 8  86299224.01546  21075143.797                    21075152.582
        50.100          39.100
 124087795.712 7  96691882.43444  23613122.945                    23613136.324
        43.200          27.900
 106395601.318 8  82905526.08447  20246371.461                    20246378.652
        51.900          45.400
 123838084.096 7  96497165.06145  23565588.695                    23565598.535
        44.400          30.200
 118398394.532 7  92258591.66045  22530477.227                    22530487.402
        45.900          34.600
 114123305.033 8  88927370.00246  21716965.438                    21716971.074
        48.100          38.100
 118688576.609 7  92484521.98545  22585658.734                    22585668.953
        43.900          30.700
 12  6 14  0  0 30.0000000  0  9G21G27G09G25G18G15G12G22G14
 116029309.852 7  90412436.66445  22079637.938                    22079646.852
        44.100          30.400
 122422166.697 7  95393932.75144  23296163.992                    23296174.070
        43.100          29.900
 110823310.746 8  86355902.10946  21088985.305                    21088994.051
        50.000          38.400
 123992414.980 7  96617559.91944  23594972.289                    23594985.875
        42.700          27.000
 106385809.274 8  82897895.88547  20244508.289                    20244515.672
        51.800          44.900
 123903479.103 7  96548122.15045  23578032.945                    23578042.797
        42.800          30.000
 118341684.891 7  92214402.35545  22519685.750                    22519695.273
        47.800          34.500
 114050767.471 8  88870847.24846  21703161.789                    21703168.023
        49.000          37.700
 118643382.773 7  92449305.99844  22577058.320                    22577068.809
        43.300          29.200
 12  6 14  0  1  0.0000000  0  9G21G27G09G25G18G15G12G22G14
 116111282.414 7  90476311.29344  22095237.063                    22095245.785
        44.900          29.900
 122516946.774 7  95467787.27445  23314199.984                    23314210.172
        43.700          30.200
 110896448.154 8  86412892.26746  21102902.477                    21102911.703
        50.400          39.400
 123897074.231 6  96543268.59944  23576829.570                    23576843.203
        41.600          27.400
 106376435.654 8  82890591.75747  20242724.586                    20242732.016
        51.400          45.000
 123968888.181 7  96599090.17844  23590479.938                    23590490.039
        44.600          29.600
 118285366.698 8  92170518.09145  22508968.766                    22508977.523
        48.200          34.600
 113978431.358 8  88814481.46946  21689396.813                    21689403.039
        49.000          38.100
 118598291.282 7  92414169.80745  22568478.180                    22568487.863
        43.900          30.600
 12  6 14  0  1 30.0000000  0  9G21G27G09G25G18G15G12G22G14
 116193549.919 7  90540415.77545  22110892.039                    22110900.992
        44.500          30.500
 122611819.992 7  95541714.36045  23332253.695                    23332264.570
        44.500          30.900
 110969987.687 8  86470195.75346  21116897.125                    21116905.523
        49.700          39.000
 123801781.169 7  96469014.42144  23558695.289                    23558709.395
        42.200          27.600
 106367486.712 8  82883618.52847  20241021.461                    20241029.152
        51.700          44.800
 124034316.163 7  96650072.89944  23602929.711                    23602940.781
        42.500          27.600
 118229447.722 7  92126944.92445  22498327.578                    22498337.324
        47.800          34.500
 113906302.909 7  88758277.51046  21675671.234                    21675677.824
        47.200          38.300
 118553305.879 7  92379116.28844  22559917.539                    22559926.191
        44.500          29.800
 12  6 14  0  2  0.0000000  0  9G21G27G09G25G18G15G12G22G14
 116276103.833 7  90604743.41244  22126601.625                    22126610.965
        43.600          29.900
 122706778.295 7  95615707.75045  23350323.805                    23350334.344
        44.700          30.100
 111043920.862 8  86527805.96246  21130966.094                    21130975.012
        49.900          39.600
 123706533.121 7  96394795.30544  23540569.898                    23540583.930
        42.500          29.200
 106358958.473 8  82876973.13547  20239398.680                    20239405.773
        52.100          44.600
 124099757.513 7  96701066.09844  23615383.281                    23615394.070
        44.100          29.400
 118173925.574 7  92083680.96645  22487762.055                    22487771.324
        47.800          34.800
 113834378.597 8  88702232.61046  21661984.422                    21661990.363
        48.700          38.300
 118508420.695 7  92344140.85045  22551375.969                    22551385.586
        44.600          30.200
 12  6 14  0  2 30.0000000  0  9G21G27G09G25G18G15G12G22G14
 116358945.778 7  90669295.49744  22142366.023                    22142374.730
        42.900          29.600
 122801824.287 7  95689769.47845  23368410.805                    23368420.797
        45.200          30.200
 111118249.646 8  86585724.44046  21145110.305                    21145119.582
        50.000          39.800
 123611338.061 7  96320617.49444  23522455.133                    23522468.078
        42.000          29.300
 106350857.121 8  82870660.36847  20237857.047                    20237864.363
        51.700          44.300
 124165217.011 7  96752073.39844  23627839.891                    23627851.082
        44.600          29.400
 118118807.677 8  92040732.00545  22477273.398                    22477282.906
        48.900          34.900
 113762665.933 8  88646352.62546  21648337.695                    21648344.402
        48.600          38.300
 118463640.011 7  92309246.83345  22542854.188                    22542864.555
        43.400          30.100
 12  6 14  0  3  0.0000000  0  9G21G27G09G25G18G15G12G22G14
 116442069.626 7  90734067.23345  22158183.906                    22158193.039
        44.500          30.500
 122896952.536 7  95763895.30645  23386512.875                    23386523.691
        44.400          30.000
 111192968.151 8  86643946.58846  21159328.891                    21159337.879
        49.600          39.200
 123516195.874 6  96246480.89444  23504350.266                    23504362.887
        40.600          27.300
 106343180.748 8  82864678.74947  20236396.297                    20236403.363
        52.200          44.700
 124230691.310 7  96803092.23645  23640299.695                    23640310.219
        45.900          30.600
 118064093.816 8  91998097.87645  22466861.883                    22466870.836
        48.300          35.500
 113691163.944 7  88590636.81846  21634731.016                    21634738.004
        47.600          37.800
 118418959.931 7  92274431.19145  22534352.258                    22534362.387
        44.100          30.400
 12  6 14  0  3 30.0000000  0  9G21G27G09G25G18G15G12G22G14
 116525474.320 7  90799057.83444  22174055.250                    22174063.770
        44.500          29.300
 122992162.829 7  95838085.06645  23404631.086                    23404641.859
        44.400          31.100
 111268075.770 8  86702471.96046  21173621.594                    21173630.820
        49.600          39.200
 123421111.630 6  96172389.38844  23486255.813                    23486269.191
        41.000          28.200
 106335933.230 8  82859031.31347  20235017.172                    20235024.676
        52.300          45.100
 124296182.829 7  96854124.50245  23652762.258                    23652772.980
        45.200          30.200
 118009788.540 7  91955782.12045  22456527.680                    22456536.359
        46.600          33.900
 113619876.511 7  88535088.20346  21621165.922                    21621172.309
        47.500          38.400
 118374381.960 7  92239695.15345  22525869.281                    22525879.082
        45.200          31.300
 12  6 14  0  4  0.0000000  0  9G21G27G09G25G18G15G12G22G14
 116609156.033 7  90864264.28544  22189979.539                    22189988.320
        44.400          29.600
 123087452.216 7  95912336.44545  23422764.445                    23422774.957
        45.500          30.400
 111343568.915 8  86761297.74346  21187987.375                    21187996.207
        50.600          39.600
 123326087.775 6  96098344.97244  23468173.219                    23468186.867
        41.100          27.700
 106329115.108 8  82853718.47147  20233719.820                    20233727.004
        52.800          44.700
 124361690.790 7  96905169.57545  23665228.336                    23665239.063
        45.600          30.400
 117955894.229 7  91913786.59145  22446272.422                    22446280.648
        47.900          34.700
 113548805.292 8  88479708.06046  21607641.359                    21607647.629
        48.100          38.100
 118329905.303 7  92205038.03545  22517405.594                    22517415.098
        45.000          30.600
 12  6 14  0  4 30.0000000  0  9G21G27G09G25G18G15G12G22G14
 116693112.665 7  90929684.94244  22205956.180                    22205965.156
        44.800          28.700
 123182819.077 7  95986648.19945  23440911.969                    23440922.949
        45.000          30.200
 111419445.458 8  86820422.29046  21202426.109                    21202434.695
        50.300          39.300
 123231128.206 6  96024350.61344  23450102.961                    23450116.859
        41.100          29.700
 106322728.442 8  82848741.82447  20232504.258                    20232511.957
        52.100          44.600
 124427216.257 7  96956228.27744  23677696.922                    23677707.320
        44.500          29.400
 117902414.248 8  91872113.91545  22436094.898                    22436103.918
        48.400          35.400
 113477953.073 8  88424498.56646  21594158.617                    21594165.305
        49.300          38.400
 118285529.796 7  92170459.74245  22508960.969                    22508970.598
        43.700          30.100
 12  6 14  0  5  0.0000000  0  9G21G27G09G25G18G15G12G22G14
 116777339.846 7  90995316.42245  22221983.539                    22221993.195
        44.800          30.000
 123278259.897 7  96061017.55745  23459073.813                    23459084.324
        45.100          30.200
 111495701.185 8  86879842.30046  21216936.867                    21216946.129
        50.000          39.900
 123136234.735 6  95950407.73044  23432044.602                    23432058.762
        41.100          26.500
 106316773.834 8  82844101.85047  20231371.211                    20231378.961
        51.700          44.600
 124492757.708 7  97007299.46244  23690169.281                    23690179.012
        45.400          28.600
 117849350.898 7  91830765.88245  22425997.430                    22426006.871
        46.900          35.400
 113407321.133 8  88369460.73046  21580717.766                    21580724.367
        49.200          38.300
 118241253.810 7  92135959.00344  22500535.680                    22500545.438
        42.600          29.300
 12  6 14  0  5 30.0000000  0  9G21G27G09G25G18G15G12G22G14
 116861835.111 7  91061156.82244  22238062.719                    22238072.016
        45.100          28.600
 123373773.036 7  96135443.29045  23477249.477                    23477259.977
        43.400          30.000
 111572333.927 8  86939556.05346  21231519.813                    21231529.348
        50.100          40.500
 123041411.061 6  95876519.25644  23414000.414                    23414014.434
        41.800          26.900
 106311252.660 8  82839799.60947  20230320.398                    20230327.535
        52.300          44.500
 124558316.176 7  97058383.88945  23702644.742                    23702655.688
        45.200          30.900
 117796706.627 7  91789744.42346  22415979.523                    22415989.578
        46.900          36.100
 113336911.890 8  88314596.41546  21567319.617                    21567325.633
        48.400          38.300
 118197077.342 7  92101535.78245  22492128.883                    22492139.148
        43.700          30.100
 12  6 14  0  6  0.0000000  0  9G21G27G09G25G18G15G12G22G14
 116946594.429 7  91127202.95344  22254192.336                    22254201.457
        45.500          29.800
 123469355.323 7  96209922.89744  23495438.023                    23495448.301
        43.100          29.300
 111649339.967 8  86999560.71646  21246173.969                    21246183.043
        50.500          40.200
 122946659.316 7  95802686.83944  23395969.992                    23395983.656
        43.200          26.900
 106306165.342 8  82835835.44247  20229352.477                    20229360.359
        53.000          44.600
 124623890.635 7  97109480.77945  23715123.828                    23715134.223
        46.300          31.400
 117744483.287 8  91749050.94445  22406041.602                    22406050.703
        49.300          35.700
 113266726.727 8  88259906.70946  21553963.586                    21553970.090
        48.400          38.400
 118152998.995 7  92067189.08545  22483741.445                    22483751.293
        43.600          30.600
 12  6 14  0  6 30.0000000  0  9G21G27G09G25G18G15G12G22G14
 117031615.758 7  91193453.26244  22270371.672                    22270380.730
        45.200          29.700
 123565005.588 7  96284455.47244  23513640.703                    23513650.219
        42.800          29.000
 111726717.617 8  87059854.92846  21260898.492                    21260907.277
        50.200          40.000
 122851983.674 7  95728913.71444  23377953.844                    23377968.023
        43.600          27.100
 106301514.724 8  82832211.56747  20228467.813                    20228475.328
        53.200          44.300
 124689482.380 7  97160591.12945  23727604.992                    23727615.230
        45.900          31.200
 117692685.045 8  91708688.73246  22396184.813                    22396193.953
        49.600          36.200
 113196769.007 8  88205394.24746  21540650.547                    21540657.645
        48.300          38.800
 118109019.407 7  92032919.26944  22475371.930                    22475382.023
        44.600          29.800
 12  6 14  0  7  0.0000000  0 10G21G27G31G09G25G18G15G12G22G14
 117116895.961 7  91259905.27444  22286599.531                    22286608.715
        44.700          28.600
 123660721.398 7  96359039.14144  23531854.578                    23531863.875
        44.600          29.800
 129426975.02715                  24629129.664
        34.800
 111804463.658 8  87120436.21146  21275692.781                    21275701.730
        49.300          39.900
 122757387.053 7  95655202.14844  23359953.211                    23359966.234
        42.500          28.000
 106297301.599 8  82828928.60347  20227665.922                    20227673.391
        52.000          44.200
 124755091.176 7  97211714.77145  23740089.875                    23740100.574
        45.400          30.600
 117641314.244 8  91668659.56546  22386409.352                    22386418.484
        48.500          36.700
 113127040.773 8  88151060.60046  21527381.930                    21527388.625
        48.100          38.900
 118065137.749 7  91998725.80444  22467021.906                    22467031.246
        44.900          29.800
 12  6 14  0  7 30.0000000  0 10G21G27G31G09G25G18G15G12G22G14
 117202431.656 7  91326556.38344  22302876.594                    22302884.898
        45.000          29.600
 123756500.180 7  96433671.87944  23550080.984                    23550090.254
        44.300          29.600
 129322209.291 6 100770569.85252  24609194.766                    24609203.535
        36.300          16.900
 111882575.101 8  87181302.21646  21290557.141                    21290566.289
        49.500          39.200
 122662872.293 7  95581554.38944  23341967.359                    23341980.680
        42.500          27.500
 106293527.192 8  82825987.49847  20226947.766                    20226955.246
        52.700          44.700
 124820716.663 7  97262851.43945  23752578.344                    23752589.184
        46.900          30.700
 117590373.300 8  91628965.37546  22376715.094                    22376724.848
        49.000          36.500
 113057543.903 8  88096907.21846  21514156.938                    21514163.820
        48.600          38.100
 118021353.304 7  91964608.06245  22458690.195                    22458699.871
        44.300          31.300
 12  6 14  0  8  0.0000000  0 10G21G27G31G09G25G18G15G12G22G14
 117288220.338 7  91393404.58344  22319201.539                    22319210.086
        44.400          27.700
 123852340.581 7  96508352.62945  23568318.500                    23568328.277
        44.900          30.500
 129217603.034 6 100689058.49243  24589288.023                    24589299.215
        37.600          18.300
 111961049.637 8  87242451.15246  21305490.555                    21305498.777
        50.300          38.800
 122568443.212 7  95507973.37344  23323997.250                    23324011.035
        42.900          27.400
 106290193.656 8  82823389.91647  20226313.539                    20226320.875
        52.500          44.200
 124886359.968 7  97314001.96645  23765069.492                    23765080.531
        46.400          30.600
 117539865.970 8  91589609.06546  22367104.156                    22367113.227
        49.300          36.700
 112988281.461 7  88042936.52846  21500976.750                    21500983.945
        47.900          38.600
 117977666.553 7  91930566.47145  22450376.656                    22450386.281
        45.200          31.400
 12  6 14  0  8 30.0000000  0 10G21G27G31G09G25G18G15G12G22G14
 117374258.965 7  91460447.58444  22335575.117                    22335583.156
        43.400          28.500
 123948239.984 7  96583079.36544  23586567.422                    23586578.246
        45.900          29.100
 129113158.116 6 100607672.81143  24569411.813                    24569425.645
        39.400          20.600
 112039884.495 8  87303880.86046  21320492.227                    21320500.727
        48.700          38.600
 122474102.767 7  95434461.44344  23306045.172                    23306057.902
        42.900          27.100
 106287301.989 8  82821136.64147  20225762.922                    20225770.668
        51.200          44.600
 124952020.879 7  97365166.21845  23777564.641                    23777575.520
        46.600          30.400
 117489794.479 8  91550592.38446  22357575.570                    22357585.262
        49.700          37.100
 112919255.453 8  87989150.05146  21487841.680                    21487847.730
        48.100          39.300
 117934076.349 7  91896600.07745  22442081.297                    22442091.852
        44.900          30.200
 12  6 14  0  9  0.0000000  0 10G21G27G31G09G25G18G15G12G22G14
 117460543.269 7  91527682.00144  22351994.359                    22352003.051
        43.700          29.100
 124044195.315 7  96657849.66644  23604827.305                    23604837.598
        44.900          29.200
 129008875.347 6 100526413.52743  24549568.258                    24549581.246
        38.900          20.600
 112119075.583 8  87365588.15246  21335561.344                    21335570.313
        48.900          38.200
 122379853.112 7  95361020.22644  23288110.508                    23288123.336
        42.500          29.600
 106284852.554 8  82819227.94947  20225296.969                    20225303.813
        50.200          44.100
 125017698.651 7  97416343.60844  23790062.930                    23790073.418
        45.500          29.400
 117440160.389 8  91511916.52246  22348130.813                    22348140.121
        49.700          36.800
 112850466.847 8  87935548.57846  21474751.500                    21474757.754
        48.800          38.600
 117890581.643 7  91862708.10845  22433804.469                    22433814.891
        44.100          30.900
 12  6 14  0  9 30.0000000  0 10G21G27G31G09G25G18G15G12G22G14
 117547069.121 7  91595104.65444  22368459.805                    22368468.641
        43.300          29.800
 124140203.436 7  96732661.08844  23623096.984                    23623107.766
        44.700          28.200
 128904755.410 6 100445281.12143  24529754.656                    24529767.668
        38.900          20.400
 112198619.060 8  87427570.03146  21350698.008                    21350706.883
        48.100          37.900
 122285696.258 7  95287651.30445  23270193.016                    23270206.105
        43.200          30.100
 106282845.204 8  82817663.75147  20224914.609                    20224922.617
        52.100          44.700
 125083392.312 7  97467533.36244  23802563.680                    23802575.715
        43.700          29.800
 117390965.719 8  91473583.06346  22338768.977                    22338778.336
        49.200          36.700
 112781916.857 8  87882133.02046  21461706.727                    21461713.441
        49.100          39.000
 117847180.647 7  91828889.16945  22425546.156                    22425555.961
        45.000          31.600
 12  6 14  0 10  0.0000000  0 10G21G27G31G09G25G18G15G12G22G14
 117633836.178 7  91662715.26844  22384970.609                    22384979.547
        44.300          29.100
 124236264.944 7  96807514.11344  23641377.047                    23641387.707
        44.900          27.900
 128800802.825 6 100364279.11543  24509973.930                    24509986.000
        38.300          19.300
 112278514.878 8  87489826.45446  21365901.977                    21365911.262
        48.100          37.500
 122191638.153 7  95214359.34645  23252294.086                    23252307.473
        43.200          30.400
 106281284.276 8  82816447.42147  20224617.969                    20224625.789
        51.900          44.600
 125149104.773 7  97518737.75144  23815068.461                    23815079.453
        45.000          28.600
 117342215.481 8  91435595.90546  22329492.492                    22329501.109
        49.100          36.400
 112713610.916 8  87828907.64646  21448708.859                    21448715.316
        49.100          39.600
 117803875.673 7  91795145.07345  22417305.438                    22417315.469
        45.300          31.600
 12  6 14  0 10 30.0000000  0 10G21G27G31G09G25G18G15G12G22G14
 117720840.057 7  91730510.40644  22401527.555                    22401536.258
        44.400          29.900
 124332376.094 7  96882405.83744  23659667.148                    23659676.934
        44.900          28.100
 128697018.495 7 100283408.19543  24490223.469                    24490236.836
        42.700          19.000
 112358758.942 8  87552354.24146  21381171.914                    21381181.398
        48.300          37.300
 122097680.519 6  95141145.62345  23234414.508                    23234427.824
        40.900          30.800
 106280169.719 8  82815578.92047  20224405.727                    20224413.551
        51.900          44.600
 125214834.563 7  97569955.67544  23827575.961                    23827587.574
        44.100          27.800
 117293910.749 8  91397955.92746  22320300.305                    22320309.141
        48.300          36.100
 112645549.586 8  87775872.86046  21435757.227                    21435763.922
        49.700          39.700
 117760664.504 7  91761474.05045  22409082.797                    22409092.477
        45.500          30.200
 12  6 14  0 11  0.0000000  0 10G21G27G31G09G25G18G15G12G22G14
 117808076.569 7  91798486.80144  22418127.383                    22418137.184
        43.600          28.100
 124428534.168 7  96957334.12444  23677965.117                    23677975.004
        44.900          26.900
 128593403.188 7 100202668.98343  24470506.422                    24470518.781
        42.300          20.900
 112439347.447 8  87615150.41546  21396507.328                    21396516.809
        48.100          37.400
 122003825.712 7  95068012.03545  23216554.898                    23216568.402
        43.200          31.100
 106279501.728 8  82815058.37647  20224279.094                    20224286.406
        52.300          44.700
 125280581.368 7  97621186.85444  23840087.945                    23840098.715
        45.200          27.700
 117246053.734 8  91360664.79746  22311192.867                    22311202.547
        48.500          36.100
 112577734.186 8  87723029.73046  21422852.602                    21422859.133
        49.800          39.800
 117717546.189 7  91727875.40845  22400877.125                    22400887.355
        45.500          30.600
 12  6 14  0 11 30.0000000  0 10G21G27G31G09G25G18G15G12G22G14
 117895545.198 7  91866644.06244  22434772.438                    22434781.871
        43.600          29.600
 124524739.301 7  97032299.07844  23696271.992                    23696282.480
        44.700          27.600
 128489961.238 6 100122064.87643  24450822.414                    24450833.699
        41.000          20.400
 112520279.536 7  87678214.33146  21411908.094                    21411917.328
        47.800          36.800
 121910079.211 7  94994962.84345  23198715.383                    23198728.340
        44.300          32.300
 106279283.721 8  82814888.47947  20224237.383                    20224245.035
        52.900          44.800
 125346347.317 7  97672432.94444  23852602.961                    23852613.313
        46.300          28.900
 117198649.267 7  91323726.30545  22302172.023                    22302182.238
        47.600          35.900
 112510169.152 8  87670381.67046  21409995.156                    21410001.039
        49.200          39.400
 117674522.676 7  91694350.62245  22392689.359                    22392700.422
        45.700          30.400
 12  6 14  0 12  0.0000000  0 10G21G27G31G09G25G18G15G12G22G14
 117983240.087 7  91934977.66544  22451460.000                    22451469.668
        42.700          29.800
 124620986.601 7  97107296.89944  23714587.977                    23714597.934
        44.800          27.500
 128386692.092 6 100041595.38443  24431171.453                    24431182.535
        41.600          21.100
 112601550.064 8  87741541.95846  21427373.867                    21427382.711
        48.500          36.900
 121816441.526 7  94921998.48745  23180896.070                    23180909.418
        44.100          32.200
 106279514.670 8  82815068.41547  20224281.328                    20224288.547
        52.300          44.500
 125412129.864 7  97723691.98644  23865121.172                    23865132.012
        45.100          29.200
 117151697.061 7  91287140.22046  22293237.328                    22293247.281
        47.500          36.400
 112442854.399 8  87617928.61646  21397185.758                    21397192.051
        50.300          39.300
 117631590.706 7  91660897.17644  22384520.117                    22384530.145
        45.900          29.900
 12  6 14  0 12 30.0000000  0 10G21G27G31G09G25G18G15G12G22G14
 118071161.572 7  92003487.84044  22468190.734                    22468200.512
        42.800          28.800
 124717277.211 7  97182328.46844  23732911.156                    23732921.059
        44.800          26.600
 128283600.724 7  99961264.39543  24411552.906                    24411564.813
        42.000          22.200
 112683159.341 8  87805133.53846  21442903.578                    21442912.453
        49.000          37.300
 121722919.178 7  94849124.01145  23163100.078                    23163112.805
        44.100          31.500
 106280199.010 8  82815601.65047  20224411.578                    20224419.324
        52.300          45.000
 125477932.802 7  97774966.89144  23877643.570                    23877653.578
        45.100          29.100
 117105203.043 7  91250911.15946  22284390.211                    22284399.336
        47.300          36.200
 112375795.416 8  87565674.86446  21384424.852                    21384430.992
        49.900          39.900
 117588753.162 7  91627517.31245  22376368.453                    22376378.648
        45.800          30.600
 12  6 14  0 13  0.0000000  0 10G21G27G31G09G25G18G15G12G22G14
 118159302.650 7  92072169.08744  22484963.750                    22484973.699
        42.000          28.300
 124813605.079 7  97257389.06444  23751242.438                    23751252.262
        43.600          26.100
 128180685.033 6  99881070.35643  24391968.664                    24391980.957
        40.600          21.800
 112765100.623 8  87868983.84146  21458496.250                    21458505.543
        48.900          37.300
 121629511.414 7  94776338.81345  23145324.992                    23145337.125
        43.400          30.700
 106281333.815 8  82816485.88747  20224627.625                    20224635.277
        52.200          44.500
 125543752.197 7  97826254.66744  23890168.539                    23890179.035
        46.400          29.400
 117059166.117 8  91215038.27546  22275629.195                    22275638.973
        48.200          36.500
 112308990.269 8  87513618.91346  21371712.219                    21371718.828
        49.600          40.500
 117546005.760 7  91594207.65745  22368234.250                    22368244.227
        46.000          30.400
 12  6 14  0 13 30.0000000  0 10G21G27G31G09G25G18G15G12G22G14
 118247662.880 7  92141021.11044  22501778.188                    22501788.164
        42.200          27.900
 124909970.920 7  97332479.25144  23769579.805                    23769590.258
        43.800          24.900
 128077949.338 6  99801016.55143  24372418.156                    24372430.477
        41.900          22.200
 112847373.841 8  87933092.78146  21474152.055                    21474161.695
        48.100          36.900
 121536223.918 7  94703647.29745  23127573.375                    23127585.445
        44.300          32.700
 106282922.936 8  82817724.13447  20224929.711                    20224937.461
        52.400          44.800
 125609591.037 7  97877557.57845  23902697.180                    23902707.695
        44.800          30.700
 117013591.291 7  91179525.46746  22266956.180                    22266965.793
        47.500          36.400
 112242444.087 8  87461764.77546  21359048.992                    21359055.289
        49.500          40.500
 117503350.368 7  91560969.74245  22360117.180                    22360126.227
        45.800          31.200
 12  6 14  0 14  0.0000000  0 10G21G27G31G09G25G18G15G12G22G14
 118336238.546 6  92210041.04944  22518633.758                    22518643.625
        40.900          28.600
 125006372.196 7  97407597.01644  23787924.945                    23787935.441
        43.700          26.700
 127975395.465 6  99721104.40343  24352902.984                    24352914.945
        39.200          20.400
 112929975.551 8  87997457.66846  21489871.281                    21489880.785
        48.100          36.000
 121443059.442 7  94631051.65445  23109844.258                    23109857.141
        45.200          31.200
 106284967.121 8  82819316.98147  20225318.891                    20225326.277
        52.600          44.800
 125675448.990 7  97928875.38045  23915229.664                    23915239.965
        44.100          30.600
 116968480.400 7  91144374.13746  22258372.492                    22258382.141
        47.200          37.100
 112176158.872 8  87410113.97346  21346434.867                    21346441.113
        50.500          39.900
 117460785.876 7  91527802.62745  22352017.523                    22352026.949
        45.500          31.400
 12  6 14  0 14 30.0000000  0 10G21G27G31G09G25G18G15G12G22G14
 118425026.631 6  92279226.44544  22535530.258                    22535539.484
        41.200          27.400
 125102806.793 6  97482740.76744  23806275.656                    23806286.133
        41.800          25.600
 127873025.126 6  99641335.23343  24333423.766                    24333435.355
        38.200          20.900
 113012903.014 8  88062076.40346  21505651.375                    21505661.242
        48.900          36.100
 121350021.260 7  94558554.43345  23092139.086                    23092152.746
        45.000          31.000
 106287467.512 8  82821265.30347  20225794.680                    20225802.051
        51.000          44.700
 125741326.074 7  97980208.08845  23927765.570                    23927776.699
        43.900          30.000
 116923836.319 8  91109586.57046  22249876.680                    22249886.492
        49.000          36.600
 112110136.701 8  87358668.14746  21333871.742                    21333877.996
        49.600          40.000
 117418312.706 7  91494706.66745  22343934.945                    22343945.016
        46.000          31.200
 12  6 14  0 15  0.0000000  0 10G21G27G31G09G25G18G15G12G22G14
 118514024.114 6  92348575.06944  22552464.867                    22552475.375
        41.400          27.200
 125199272.539 6  97557908.80944  23824631.828                    23824642.762
        41.900          25.200
 127770839.950 6  99561710.47043  24313977.836                    24313988.984
        40.100          21.700
 113096153.298 7  88126946.70345  21521493.703                    21521503.027
        47.800          35.500
 121257112.468 7  94486158.04545  23074459.320                    23074472.078
        43.700          30.600
 106290425.131 8  82823569.91647  20226357.453                    20226365.238
        50.700          44.400
 125807222.318 7  98031555.75945  23940305.211                    23940315.957
        42.500          30.900
 116879661.064 8  91075164.31846  22241470.883                    22241479.387
        50.200          37.400
 112044379.733 8  87307428.97946  21321358.516                    21321364.973
        50.700          40.900
 117375929.977 7  91461681.20445  22335869.727                    22335879.371
        45.800          30.200
 12  6 14  0 15 30.0000000  0 10G21G27G31G09G25G18G15G12G22G14
 118603227.076 7  92418083.79644  22569439.742                    22569449.836
        42.800          27.900
 125295766.590 6  97633098.89143  23842994.578                    23843004.539
        40.500          23.000
 127668841.262 7  99482230.95143  24294568.172                    24294579.508
        42.100          22.900
 113179722.786 8  88192065.73346  21537396.594                    21537406.242
        48.000          36.100
 121164335.520 7  94413864.38145  23056804.820                    23056817.191
        44.700          32.200
 106293840.418 8  82826231.15647  20227007.445                    20227015.336
        52.800          44.300
 125873137.257 7  98082917.95845  23952848.063                    23952860.000
        43.500          30.000
 116835956.750 8  91041109.03246  22233154.234                    22233162.879
        50.300          37.300
 111978889.580 8  87256397.72646  21308896.102                    21308902.535
        49.900          39.900
 117333636.268 7  91428725.10545  22327821.430                    22327831.152
        46.800          30.900
 12  6 14  0 16  0.0000000  0 10G21G27G31G09G25G18G15G12G22G14
 118692631.869 7  92487749.78944  22586453.297                    22586463.555
        42.200          28.300
 125392286.583 6  97708309.18843  23861361.758                    23861372.145
        40.200          22.800
 127567030.517 6  99402897.92144  24275193.984                    24275206.012
        41.900          26.000
 113263608.611 8  88257431.25346  21553359.531                    21553368.945
        48.300          36.100
 121071693.238 7  94341675.64845  23039175.031                    23039187.637
        45.000          30.900
 106297713.981 8  82829249.48447  20227744.813                    20227752.039
        51.800          45.000
 125939070.959 7  98134294.80145  23965395.422                    23965406.020
        43.000          30.600
 116792725.424 8  91007422.32146  22224927.602                    22224936.391
        48.800          38.300
 111913668.144 8  87205575.85446  21296485.055                    21296491.254
        49.900          40.300
 117291430.820 7  91395837.77445  22319789.781                    22319799.258
        45.800          31.100
 12  6 14  0 16 30.0000000  0 10G21G27G31G09G25G18G15G12G22G14
 118782237.617 6  92557572.32844  22603504.359                    22603515.102
        41.900          27.900
 125488832.470 6  97783539.68243  23879733.180                    23879743.914
        40.200          22.600
 127465411.586 6  99323714.32544  24255857.586                    24255868.527
        40.400          24.100
 113347809.647 8  88323042.40146  21569382.398                    21569392.223
        48.600          36.400
 120979190.939 7  94269596.00545  23021572.328                    23021585.156
        43.700          31.000
 106302049.215 8  82832627.56947  20228569.695                    20228577.266
        51.700          44.900
 126005025.742 7  98185688.04545  23977946.492                    23977957.078
        42.000          30.500
 116749971.855 8  90974107.86046  22216792.320                    22216801.336
        50.300          38.300
 111848719.689 8  87154966.68746  21284125.328                    21284131.828
        50.900          41.000
 117249315.517 7  91363020.69945  22311775.367                    22311785.453
        45.000          30.600
 12  6 14  0 17  0.0000000  0 10G21G27G31G09G25G18G15G12G22G14
 118872038.608 7  92627547.00644  22620593.539                    22620603.313
        42.600          26.200
 125585399.499 6  97858786.62843  23898108.664                    23898120.664
        40.000          22.500
 127363983.534 6  99244679.51043  24236556.391                    24236567.688
        40.000          22.600
 113432320.209 8  88388894.73346  21585464.305                    21585474.324
        48.500          37.900
 120886829.094 7  94197625.84245  23003996.719                    23004009.227
        44.600          32.300
 106306844.296 8  82836363.96947  20229482.500                    20229489.551
        53.000          45.100
 126070998.756 7  98237095.49444  23990500.109                    23990511.750
        43.300          29.400
 116707695.052 8  90941164.93046  22208746.883                    22208755.801
        49.700          36.500
 111784043.755 8  87104569.87846  21271817.961                    21271824.441
        50.400          40.600
 117207287.156 7  91330271.34745  22303778.148                    22303788.055
        47.400          31.100
 12  6 14  0 17 30.0000000  0 10G21G27G31G09G25G18G15G12G22G14
 118962032.306 6  92697671.89643  22637718.031                    22637728.566
        37.700          19.300
 125681986.574 5  97934049.13642  23916490.867                    23916500.805
        35.800          16.900
 127262748.879 5  99165795.41042  24217291.664                    24217303.625
        34.900          16.300
 113517138.245 7  88454986.66145  21601604.844                    21601614.418
        43.100          31.100
 120794611.527 6  94125768.05544  22986447.930                    22986461.402
        40.000          24.900
 106312100.952 8  82840460.03846  20230482.195                    20230489.773
        48.100          37.700
 126136990.923 6  98288517.86743  24003058.047                    24003069.563
        39.000          21.800
 116665898.508 7  90908596.24344  22200792.805                    22200802.242
        43.300          29.700
 111719643.551 7  87054387.92245  21259562.914                    21259568.902
        44.200          33.300
 117165345.923 6  91297589.87944  22295796.148                    22295806.359
        40.400          24.600
 12  6 14  0 18  0.0000000  0 10G21G27G31G09G25G18G15G12G22G14
 119052216.641 6  92767945.31543  22654880.344                    22654890.254
        38.700          20.600
 125778592.602 5  98009326.48142  23934873.969                    23934884.637
        35.000          16.300
 127161710.473 6  99087064.21142  24198064.172                    24198076.512
        36.900          17.400
 113602262.079 7  88521316.86345  21617803.578                    21617812.965
        43.000          30.300
 120702542.478 6  94054026.00444  22968928.297                    22968940.945
        38.600          26.100
 106317821.530 7  82844917.63146  20231571.297                    20231578.383
        47.300          37.500
 126203003.570 6  98339956.23143  24015620.219                    24015631.613
        38.900          20.900
 116624585.536 7  90876404.34744  22192932.102                    22192940.742
        42.900          29.800
 111655522.322 7  87004423.34045  21247361.203                    21247367.203
        44.900          33.600
 117123492.526 6  91264976.87544  22287832.852                    22287841.945
        39.000          24.300
 12  6 14  0 18 30.0000000  0 10G21G27G31G09G25G18G15G12G22G14
 119142587.466 6  92838364.04143  22672077.914                    22672086.785
        38.700          19.300
 125875214.930 5  98084616.53442  23953260.695                    23953271.059
        35.800          16.900
 127060869.000 6  99008486.47542  24178874.898                    24178887.219
        36.200          16.900
 113687688.040 7  88587882.47344  21634059.422                    21634069.410
        42.400          29.800
 120610624.271 6  93982401.51543  22951435.531                    22951449.230
        39.400          21.700
 106324006.105 7  82849736.77446  20232747.844                    20232755.594
        47.000          37.200
 126269036.058 6  98391410.01943  24028186.180                    24028197.113
        38.400          20.900
 116583757.481 7  90844590.30244  22185162.102                    22185171.348
        43.300          29.800
 111591681.337 7  86954677.14245  21235213.109                    21235218.605
        45.100          32.800
 117081725.494 6  91232431.15644  22279884.164                    22279893.848
        41.000          24.100
 12  6 14  0 19  0.0000000  0 10G21G27G31G09G25G18G15G12G22G14
 119233143.557 6  92908927.15043  22689310.438                    22689319.125
        38.900          19.300
 125971852.817 6  98159918.68642  23971650.008                    23971660.770
        36.100          15.600
 126960228.120 5  98930065.00642  24159723.711                    24159735.621
        34.900          16.900
 113773414.916 7  88654682.55844  21650373.156                    21650382.387
        42.600          29.900
 120518861.682 6  93910898.28143  22933974.898                    22933987.633
        40.200          22.600
 106330656.912 7  82854919.20246  20234013.766                    20234021.293
        46.900          37.300
 126335090.017 6  98442880.53043  24040755.938                    24040766.352
        38.400          19.900
 116543418.599 7  90813157.43944  22177486.039                    22177494.680
        43.500          28.100
 111528124.255 7  86905152.14445  21223118.383                    21223124.023
        45.200          33.300
 117040045.977 6  91199953.65343  22271952.969                    22271962.473
        40.000          22.500
 12  6 14  0 19 30.0000000  0 10G21G27G31G09G25G18G15G12G22G14
 119323878.830 6  92979629.89943  22706575.805                    22706585.465
        38.800          19.000
 126068501.577 6  98235229.37542  23990040.672                    23990052.195
        37.300          15.600
 126859786.921 6  98851799.19342  24140610.227                    24140621.863
        36.700          16.900
 113859436.969 7  88721712.67144  21666742.570                    21666751.930
        42.300          28.900
 120427255.165 6  93839516.63643  22916541.742                    22916555.309
        38.300          22.500
 106337771.982 7  82860463.39446  20235367.703                    20235375.289
        47.200          37.000
 126401163.144 6  98494366.01343  24053328.453                    24053339.996
        37.200          19.300
 116503568.177 7  90782105.21044  22169902.797                    22169911.516
        43.400          28.900
 111464850.848 7  86855848.23145  21211077.398                    21211084.129
        43.800          32.700
 116998451.043 6  91167542.03444  22264037.328                    22264047.008
        39.400          24.100
 12  6 14  0 20  0.0000000  0 10G21G27G31G09G25G18G15G12G22G14
 119414794.751 6  93050473.36743  22723878.086                    22723886.594
        38.300          18.600
 126165163.738 6  98310550.44642  24008435.367                    24008446.602
        36.100          16.300
 126759551.545 6  98773693.74143  24121535.289                    24121548.063
        39.200          19.000
 113945755.757 7  88788974.00444  21683167.930                    21683177.848
        43.100          29.600
 120335812.390 6  93768262.62743  22899140.188                    22899153.828
        38.800          22.500
 106345357.374 7  82866374.06746  20236810.930                    20236818.461
        46.900          36.900
 126467260.060 6  98545870.02943  24065906.391                    24065918.219
        37.700          19.300
 116464212.787 7  90751438.70345  22162413.563                    22162422.203
        43.200          30.200
 111401867.915 7  86806770.64645  21199092.484                    21199098.719
        44.300          33.100
 116956944.733 6  91135199.49943  22256139.125                    22256148.598
        37.700          22.500
 12  6 14  0 20 30.0000000  0 10G21G27G31G09G25G18G15G12G22G14
 119505884.596 6  93121452.39143  22741210.883                    22741220.602
        38.700          18.300
 126261833.680 6  98385877.57542  24026830.828                    24026841.586
        36.400          16.300
 126659520.138 6  98695747.33442  24102501.055                    24102512.867
        36.500          16.300
 114032365.039 7  88856461.70144  21699649.281                    21699659.402
        43.400          29.300
 120244533.065 6  93697135.92043  22881771.320                    22881783.918
        38.400          22.500
 106353410.325 7  82872649.06146  20238343.828                    20238351.102
        46.800          36.000
 126533377.559 6  98597390.06742  24078488.375                    24078499.828
        38.100          17.800
 116425351.533 7  90721157.25144  22155018.492                    22155027.543
        42.800          27.900
 111339174.010 7  86757918.25545  21187162.531                    21187168.660
        44.300          33.300
 116915523.096 6  91102922.93343  22248257.070                    22248266.359
        39.700          22.800
 12  6 14  0 21  0.0000000  0 10G21G27G31G09G25G18G15G12G22G14
 119597146.072 6  93192565.13443  22758577.930                    22758587.215
        37.800          19.300
 126358510.070 5  98461209.75442  24045227.391                    24045238.992
        34.600          15.600
 126559695.010 5  98617961.49542  24083504.859                    24083516.262
        35.300          17.400
 114119262.757 7  88924174.13145  21716185.938                    21716195.750
        42.200          30.300
 120153420.935 6  93626139.53843  22864433.172                    22864445.699
        39.000          22.300
 106361932.341 7  82879289.56546  20239965.094                    20239972.797
        46.600          36.600
 126599516.264 6  98648926.63243  24091074.375                    24091085.578
        38.100          19.300
 116386987.492 7  90691263.18544  22147717.930                    22147727.000
        44.100          29.100
 111276771.921 7  86709293.27245  21175287.352                    21175293.863
        43.700          33.100
 116874186.311 6  91070712.48343  22240390.203                    22240400.449
        40.000          22.900
 12  6 14  0 21 30.0000000  0 10G21G27G31G09G25G18G15G12G22G14
 119688575.548 6  93263808.78943  22775976.773                    22775985.168
        39.700          19.600
 126455190.563 5  98536545.12342  24063625.664                    24063636.781
        35.300          16.300
 126460077.385 6  98540337.53143  24064548.109                    24064559.195
        37.100          19.000
 114206445.213 7  88992108.45245  21732776.352                    21732786.156
        44.000          30.200
 120062478.669 6  93555275.50843  22847127.227                    22847139.879
        39.600          23.500
 106370923.538 7  82886295.67646  20241676.172                    20241683.602
        47.900          37.500
 126665675.712 6  98700479.36543  24103664.188                    24103675.379
        38.900          20.600
 116349121.971 7  90661757.59845  22140512.172                    22140521.289
        44.500          30.600
 111214663.551 7  86660897.15645  21163468.766                    21163475.219
        44.500          34.400
 116832933.244 6  91038567.27743  22232541.023                    22232550.309
        40.200          23.600
 12  6 14  0 22  0.0000000  0 10G21G27G31G09G25G18G15G12G22G14
 119780170.400 6  93335181.31143  22793405.742                    22793414.973
        39.000          18.600
 126551873.862 5  98611882.71542  24082024.211                    24082035.180
        34.500          15.600
 126360670.107 6  98462877.34643  24045630.922                    24045642.734
        37.600          18.300
 114293910.327 7  89060263.02344  21749420.539                    21749429.852
        42.000          29.400
 119971710.178 6  93484546.88844  22829854.648                    22829867.492
        39.200          25.300
 106380385.747 7  82893668.80246  20243476.773                    20243484.172
        47.800          36.900
 126731857.126 6  98752049.20143  24116257.398                    24116269.250
        36.500          19.600
 116311757.792 7  90632642.68845  22133402.078                    22133410.805
        44.700          31.000
 111152852.007 7  86612732.32045  21151705.859                    21151712.203
        45.700          34.000
 116791764.378 6  91006487.63644  22224705.961                    22224715.250
        40.300          24.800
 12  6 14  0 22 30.0000000  0 10G21G27G31G09G25G18G15G12G22G14
 119871927.769 6  93406680.43643  22810866.789                    22810875.918
        39.500          20.100
 126648558.394 5  98687221.19342  24100422.938                    24100433.695
        33.700          16.300
 126261474.602 6  98385582.22243  24026754.859                    24026767.176
        36.100          18.600
 114381655.550 6  89128635.85945  21766117.813                    21766127.297
        41.500          30.100
 119881118.943 6  93413956.37344  22812616.313                    22812628.270
        40.800          24.800
 106390320.321 7  82901410.01846  20245367.211                    20245374.816
        46.900          37.800
 126798061.008 6  98803636.58543  24128855.414                    24128868.168
        36.200          18.600
 116274897.703 7  90603920.53945  22126387.742                    22126397.289
        45.000          31.400
 111091339.506 7  86564800.52545  21140000.734                    21140006.922
        45.400          33.800
 116750679.632 6  90974473.58943  22216888.523                    22216897.684
        40.500          23.900
 12  6 14  0 23  0.0000000  0 10G21G27G31G09G25G18G15G12G22G14
 119963843.744 6  93478303.21344  22828357.641                    22828368.082
        41.900          25.100
 126745241.217 6  98762558.44643  24118819.555                    24118831.020
        39.200          20.600
 126162491.900 7  98308452.96244  24007919.109                    24007930.895
        43.800          27.300
 114469677.362 8  89197224.22546  21782867.727                    21782877.664
        48.600          37.100
 119790707.375 7  93343505.86145  22795410.398                    22795423.484
        44.500          32.900
 106400727.190 8  82909519.23547  20247347.828                    20247355.051
        53.100          45.700
 126864286.683 6  98855240.91444  24141458.797                    24141469.883
        41.800          24.000
 116238543.031 8  90575592.22346  22119469.703                    22119479.125
        50.100          38.100
 111030127.727 8  86517103.05346  21128352.211                    21128358.223
        50.400          41.300
 116709677.884 7  90942524.20345  22209085.891                    22209095.582
        47.200          33.100
 12  6 14  0 23 30.0000000  0 10G21G27G31G09G25G18G15G12G22G14
 120055915.621 6  93550047.45244  22845879.414                    22845889.078
        41.800          26.600
 126841921.580 6  98837893.69243  24137217.984                    24137228.805
        38.000          20.100
 126063725.236 7  98231491.97344  23989125.055                    23989136.625
        44.100          27.800
 114557973.979 7  89266026.70946  21799669.969                    21799679.957
        47.200          37.000
 119700479.665 7  93273198.61145  22778241.359                    22778253.789
        44.300          32.300
 106411607.912 8  82917997.68347  20249417.898                    20249426.090
        53.400          44.900
 126930535.212 7  98906863.05444  24154065.641                    24154076.203
        43.300          27.700
 116202696.678 8  90547660.03546  22112648.078                    22112657.137
        50.500          38.400
 110969219.951 8  86469642.46046  21116762.188                    21116768.590
        50.000          40.800
 116668759.725 7  90910639.93645  22201299.016                    22201309.336
        46.500          32.900
 12  6 14  0 24  0.0000000  0 10G21G27G31G09G25G18G15G12G22G14
 120148140.293 6  93621910.76244  22863428.477                    22863438.699
        41.000          24.600
 126938596.073 6  98913224.39143  24155614.477                    24155625.473
        38.300          19.300
 125965174.367 7  98154699.19344  23970370.563                    23970382.875
        44.300          26.700
 114646541.217 7  89335040.07945  21816524.109                    21816533.383
        45.900          35.700
 119610437.657 7  93203036.06845  22761106.578                    22761119.664
        44.500          32.500
 106422961.929 8  82926844.93247  20251578.836                    20251586.473
        52.800          44.600
 126996805.500 7  98958502.15044  24166676.563                    24166688.289
        43.800          29.400
 116167359.567 8  90520124.63946  22105923.977                    22105933.254
        50.500          38.600
 110908617.079 8  86422419.46546  21105229.672                    21105236.379
        50.700          41.300
 116627923.286 7  90878819.33545  22193528.305                    22193537.996
        46.100          32.100
 12  6 14  0 24 30.0000000  0 10G21G27G31G09G25G18G15G12G22G14
 120240514.069 6  93693890.23444  22881006.570                    22881016.699
        39.700          24.200
 127035262.833 6  98988549.03443  24174010.180                    24174020.852
        39.600          19.300
 125866841.137 7  98078075.97644  23951658.648                    23951670.723
        43.000          25.300
 114735376.275 7  89404262.14045  21833428.539                    21833438.098
        46.500          35.200
 119520584.392 7  93133020.60545  22744008.055                    22744020.586
        45.300          32.200
 106434790.238 8  82936061.76747  20253829.742                    20253837.195
        53.200          45.000
 127063097.877 7  99010158.47644  24179291.555                    24179303.781
        44.100          29.300
 116132533.742 8  90492987.63446  22099296.602                    22099305.500
        49.000          38.100
 110848321.101 8  86375435.60246  21093755.766                    21093762.254
        51.100          41.500
 116587168.062 7  90847062.02645  22185772.508                    22185782.121
        46.600          31.900
 12  6 14  0 25  0.0000000  0 10G21G27G31G09G25G18G15G12G22G14
 120333035.947 6  93765985.13444  22898613.180                    22898623.020
        41.300          25.600
 127131922.321 6  99063868.02043  24192404.109                    24192414.750
        39.000          19.000
 125768729.706 7  98001625.58444  23932988.844                    23933000.406
        42.700          27.100
 114824478.703 7  89473692.53845  21850384.719                    21850393.789
        46.300          35.600
 119430925.511 7  93063156.61845  22726946.492                    22726958.617
        43.400          32.800
 106447095.947 8  82945650.61347  20256171.438                    20256179.348
        53.700          45.100
 127129415.061 7  99061834.13044  24191911.000                    24191923.219
        42.700          27.600
 116098223.567 8  90466252.46446  22092767.594                    22092776.961
        48.100          37.300
 110788336.628 8  86328694.46146  21082340.945                    21082347.520
        50.500          40.800
 116546496.143 7  90815369.63745  22178032.883                    22178042.594
        45.400          32.400
 12  6 14  0 25 30.0000000  0 10G21G27G31G09G25G18G15G12G22G14
 120425700.865 6  93838191.48444  22916246.938                    22916256.844
        39.000          25.100
 127228570.746 6  99139178.38343  24210795.867                    24210807.023
        37.700          19.300
 125670839.389 7  97925347.46444  23914359.867                    23914372.340
        44.100          25.700
 114913843.506 7  89543327.39445  21867389.805                    21867399.602
        46.000          35.500
 119341462.248 7  92993445.04645  22709922.117                    22709934.340
        45.400          34.300
 106459877.821 8  82955610.47447  20258603.656                    20258611.508
        53.800          44.300
 127195755.032 7  99113527.52344  24204535.867                    24204546.875
        42.300          26.800
 116064429.026 8  90439919.07346  22086336.813                    22086346.137
        48.900          38.100
 110728664.127 8  86282196.43246  21070985.398                    21070991.910
        50.300          41.800
 116505905.195 7  90783740.34445  22170309.391                    22170318.477
        47.600          33.600
 12  6 14  0 26  0.0000000  0 10G21G27G31G09G25G18G15G12G22G14
 120518505.797 6  93910506.94744  22933907.336                    22933917.297
        41.300          24.700
 127325206.877 6  99214479.12743  24229184.672                    24229197.043
        39.200          19.600
 125573172.345 7  97849243.39944  23895774.570                    23895786.824
        43.500          28.600
 115003468.417 7  89613164.92645  21884445.023                    21884454.715
        47.200          35.000
 119252198.259 7  92923888.75045  22692935.719                    22692948.250
        45.700          33.100
 106473137.039 8  82965942.30747  20261126.984                    20261134.520
        53.500          45.100
 127262118.594 7  99165239.26844  24217163.633                    24217175.219
        43.000          26.900
 116031152.796 8  90413989.55946  22080004.727                    22080013.613
        48.900          37.500
 110669306.201 8  86235943.53746  21059690.328                    21059696.633
        50.800          41.800
 116465395.523 7  90752174.40445  22162600.336                    22162610.031
        47.700          32.800
 12  6 14  0 26 30.0000000  0 10G21G27G31G09G25G18G15G12G22G14
 120611447.364 6  93982928.85444  22951593.617                    22951603.641
        39.900          25.900
 127421827.899 6  99289768.11842  24247571.711                    24247583.746
        39.000          17.400
 125475729.895 7  97773314.28044  23877232.547                    23877244.277
        42.300          28.100
 115093349.993 7  89683202.45745  21901549.281                    21901559.063
        45.900          35.000
 119163136.110 7  92854489.75045  22675987.797                    22676000.523
        44.800          32.800
 106486873.760 8  82976646.20747  20263740.992                    20263748.004
        53.800          44.300
 127328505.210 6  99216969.04844  24229796.219                    24229808.484
        41.800          26.200
 115998396.242 7  90388464.99046  22073770.680                    22073779.965
        46.800          37.000
 110610264.438 8  86189936.98646  21048454.914                    21048461.234
        51.200          41.500
 116424965.782 7  90720670.72345  22154906.391                    22154916.238
        46.400          32.500
 12  6 14  0 27  0.0000000  0 10G21G27G31G09G25G18G15G12G22G14
 120704523.594 6  94055455.71444  22969305.148                    22969315.590
        41.200          25.800
 127518432.673 6  99365044.43543  24265955.508                    24265965.996
        40.300          19.900
 125378514.454 6  97697562.07144  23858732.359                    23858744.402
        39.700          25.800
 115183486.154 7  89753438.35245  21918701.445                    21918711.598
        47.600          35.200
 119074279.504 7  92785250.89845  22659078.609                    22659091.605
        44.400          33.600
 106501089.007 8  82987722.97847  20266445.742                    20266453.762
        53.000          45.100
 127394915.954 7  99268717.57644  24242434.992                    24242446.164
        42.400          25.000
 115966162.104 7  90363347.48946  22067637.180                    22067645.996
        47.500          37.200
 110551541.357 8  86144178.76446  21037280.359                    21037286.230
        50.100          41.500
 116384616.143 7  90689229.46045  22147227.883                    22147237.781
        46.100          32.200
 12  6 14  0 27 30.0000000  0 10G21G27G31G09G25G18G15G12G22G14
 120797731.239 6  94128084.97044  22987042.602                    22987052.469
        39.500          25.100
 127615020.058 6  99440307.22342  24284335.414                    24284346.445
        40.300          17.400
 125281527.913 6  97621988.19344  23840276.633                    23840288.078
        40.900          25.500
 115273874.644 7  89823870.86445  21935901.648                    21935911.367
        45.700          34.800
 118985632.391 7  92716175.27845  22642209.516                    22642222.809
        44.600          33.700
 106515784.537 8  82999174.00747  20269242.523                    20269250.648
        53.100          44.600
 127461351.812 6  99320485.65444  24255076.883                    24255088.348
        41.400          25.600
 115934452.791 7  90338638.95346  22061602.969                    22061612.219
        47.500          38.400
 110493140.704 8  86098671.77646  21026167.273                    21026173.219
        50.700          41.400
 116344347.374 7  90657851.21845  22139565.852                    22139575.137
        47.000          33.100
 12  6 14  0 28  0.0000000  0 10G21G27G31G09G25G18G15G12G22G14
 120891065.562 6  94200812.92344  23004803.086                    23004813.641
        39.600          24.700
 127711586.218 6  99515553.44342  24302710.859                    24302721.957
        39.300          17.400
 125184769.854 6  97546592.39044  23821862.711                    23821875.395
        40.700          25.600
 115364510.732 7  89894496.31545  21953149.508                    21953159.270
        46.400          35.800
 118897195.912 7  92647263.77845  22625380.258                    22625393.176
        44.300          33.200
 106530958.883 8  83010998.14047  20272130.164                    20272137.887
        53.800          44.900
 127527810.749 6  99372271.70444  24267723.211                    24267735.871
        39.900          24.700
 115903268.165 8  90314339.29946  22055668.703                    22055678.145
        48.100          39.200
 110435062.203 8  86053415.82246  21015115.234                    21015121.094
        50.700          41.800
 116304156.986 7  90626534.06345  22131917.914                    22131927.973
        46.400          33.600
 12  6 14  0 28 30.0000000  0 10G21G27G31G09G25G18G15G12G22G14
 120984526.725 6  94273639.70844  23022588.359                    23022598.797
        39.800          24.200
 127808132.812 6  99590784.46843  24321084.078                    24321094.523
        40.000          18.600
 125088245.821 6  97471378.91644  23803495.586                    23803508.035
        40.300          26.000
 115455395.170 7  89965315.27345  21970444.328                    21970454.020
        46.000          35.400
 118808976.830 7  92578521.71445  22608592.875                    22608605.438
        44.500          33.900
 106546616.072 8  83023198.53047  20275109.523                    20275117.125
        53.000          44.500
 127594296.577 6  99424078.70943  24280375.484                    24280387.016
        39.500          21.800
 115872613.754 7  90290452.77146  22049834.844                    22049844.832
        46.800          39.300
 110377311.702 8  86008415.45647  21004125.688                    21004131.367
        50.100          42.200
 116264047.871 7  90595280.24045  22124285.117                    22124294.953
        46.000          33.200
 12  6 14  0 29  0.0000000  0 10G21G27G31G09G25G18G15G12G22G14
 121078108.964 6  94346560.84343  23040395.570                    23040406.543
        39.500          23.000
 127904655.145 6  99665996.52543  24339451.773                    24339463.352
        38.300          18.600
 124991954.296 6  97396346.63244  23785171.891                    23785183.875
        41.100          24.700
 115546522.373 7  90036323.40345  21987784.922                    21987794.996
        46.000          35.300
 118720975.562 7  92509949.36645  22591846.945                    22591859.484
        43.800          34.000
 106562754.303 8  83035773.73847  20278180.531                    20278188.344
        53.000          44.600
 127660806.859 6  99475904.79343  24293032.672                    24293043.621
        40.200          22.800
 115842488.695 7  90266978.72246  22044102.539                    22044112.156
        46.900          39.000
 110319888.692 8  85963670.27446  20993198.320                    20993204.250
        50.500          41.800
 116224017.086 7  90564087.43245  22116667.320                    22116676.566
        46.700          32.100
 12  6 14  0 29 30.0000000  0 10G21G27G31G09G25G18G15G12G22G14
 121171808.741 6  94419573.56544  23058226.742                    23058237.043
        40.300          24.800
 128001150.856 6  99741187.87843  24357813.492                    24357826.359
        36.700          18.600
 124895896.361 6  97321496.35744  23766892.844                    23766904.809
        41.800          25.300
 115637888.892 7  90107517.99345  22005171.680                    22005181.117
        45.700          34.800
 118633194.770 7  92441548.80645  22575142.734                    22575155.621
        44.600          34.500
 106579373.676 8  83048723.86247  20281343.375                    20281350.813
        52.900          44.600
 127727341.202 6  99527749.54544  24305694.039                    24305706.008
        41.000          26.500
 115812894.512 7  90243918.33946  22038471.344                    22038480.453
        47.300          39.600
 110262794.767 8  85919181.52246  20982333.492                    20982339.887
        50.300          41.700
 116184063.973 7  90532955.16345  22109064.430                    22109074.109
        46.000          33.500
 12  6 14  0 30  0.0000000  0 10G21G27G31G09G25G18G15G12G22G14
 121265626.091 6  94492677.91844  23076079.477                    23076090.289
        40.300          24.400
 128097621.014 6  99816359.34643  24376171.734                    24376184.133
        37.600          18.300
 124800076.513 7  97246831.62844  23748659.734                    23748670.094
        42.000          24.200
 115729494.667 7  90178899.02245  22022603.609                    22022612.922
        44.700          34.700
 118545640.351 7  92373324.62045  22558481.922                    22558493.594
        44.300          33.700
 106596477.179 8  83062051.23847  20284598.016                    20284606.211
        52.900          44.600
 127793902.720 6  99579615.54644  24318360.203                    24318371.773
        40.100          25.400
 115783835.514 8  90221274.98446  22032941.609                    22032951.063
        48.400          39.900
 110206034.724 8  85874952.92946  20971532.461                    20971538.508
        49.500          41.500
 116144190.694 7  90501885.12445  22101476.789                    22101486.934
        45.700          32.800
 12  6 14  0 30 30.0000000  0 10G21G27G31G09G25G18G15G12G22G14
 121359554.940 6  94565869.13544  23093953.797                    23093964.293
        41.600          24.400
 128194061.214 6  99891507.43142  24394523.805                    24394535.676
        37.600          16.300
 124704493.849 6  97172351.71944  23730470.016                    23730481.949
        41.300          25.100
 115821334.490 7  90250462.41345  22040080.328                    22040090.234
        45.800          34.400
 118458312.781 7  92305277.24145  22541863.250                    22541876.129
        45.000          33.400
 106614062.737 8  83075754.25047  20287944.180                    20287952.230
        52.500          44.100
 127860489.043 6  99631500.92743  24331030.938                    24331042.680
        39.000          22.200
 115755311.048 8  90199048.15446  22027513.453                    22027523.051
        48.800          39.400
 110149608.350 8  85830984.35546  20960794.867                    20960801.465
        49.900          41.400
 116104394.342 7  90470875.01745  22093903.789                    22093913.422
        46.500          33.400
 12  6 14  0 31  0.0000000  0 10G21G27G31G09G25G18G15G12G22G14
 121453593.238 6  94639145.62643  23111848.695                    23111859.742
        39.700          23.600
 128290470.799 6  99966631.71542  24412869.594                    24412880.668
        38.100          17.800
 124609150.849 7  97098058.58844  23712326.391                    23712338.480
        43.400          27.300
 115913406.779 7  90322206.94845  22057600.891                    22057610.613
        46.300          33.600
 118371216.416 7  92237410.01845  22525290.047                    22525302.664
        45.200          34.000
 106632132.222 8  83089834.34147  20291382.828                    20291390.844
        52.000          44.800
 127927101.562 6  99683406.69743  24343706.445                    24343717.676
        37.800          22.600
 115727323.781 8  90177239.90246  22022187.805                    22022197.145
        48.000          39.000
 110093519.181 8  85787278.53046  20950121.266                    20950127.527
        50.200          41.800
 116064675.689 7  90439925.47645  22086345.469                    22086355.641
        44.600          34.000
 12  6 14  0 31 30.0000000  0 10G21G27G31G09G25G18G15G12G22G14
 121547737.453 6  94712504.65143  23129764.617                    23129774.773
        37.900          22.200
 128386847.721 6 100041730.51743  24431210.117                    24431220.410
        36.900          18.600
 124514048.837 7  97023953.24944  23694229.609                    23694240.547
        42.500          26.800
 116005708.412 7  90394130.19145  22075165.641                    22075175.266
        46.100          33.800
 118284354.067 7  92169725.10445  22508760.555                    22508773.465
        45.600          34.600
 106650686.018 8  83104291.80847  20294913.781                    20294921.469
        53.000          44.100
 127993740.195 6  99735332.74944  24356388.906                    24356399.219
        38.400          24.100
 115699875.605 7  90155851.73246  22016964.789                    22016972.938
        47.700          38.400
 110037768.775 8  85743836.67746  20939512.156                    20939518.543
        49.900          41.700
 116025034.053 7  90409035.91245  22078802.125                    22078812.203
        46.200          34.400
 12  6 14  0 32  0.0000000  0 10G21G27G31G09G25G18G15G12G22G14
 121641985.424 6  94785944.47143  23147699.188                    23147709.406
        37.800          18.300
 128483190.761 5 100116802.90542  24449543.328                    24449553.926
        33.900          14.800
 124419189.721 6  96950037.13743  23676178.570                    23676189.375
        39.000          20.100
 116098237.272 7  90466230.50444  22092773.336                    22092783.184
        42.400          27.900
 118197729.570 6  92102225.53944  22492276.688                    22492288.945
        41.200          26.900
 106669724.721 7  83119127.11946  20298537.078                    20298544.207
        47.600          37.500
 128060405.649 5  99787279.74342  24369073.602                    24369085.141
        34.900          17.800
 115672968.536 7  90134885.20045  22011844.219                    22011853.504
        44.300          31.500
 109982360.209 7  85700661.19245  20928969.055                    20928974.871
        46.300          35.300
 115985469.837 6  90378206.66444  22071273.234                    22071282.602
        41.100          26.900
 12  6 14  0 32 30.0000000  0 10G21G27G31G09G25G18G15G12G22G14
 121736334.374 6  94859463.05842  23165653.016                    23165663.609
        36.300          17.400
 128579498.509 5 100191847.84142  24467871.234                    24467881.379
        33.900          14.800
 124324575.607 6  96876311.90643  23658174.445                    23658185.461
        38.600          19.900
 116190990.847 6  90538505.90744  22110423.938                    22110433.496
        41.900          25.300
 118111346.593 7  92034914.18744  22475838.375                    22475850.336
        42.400          25.200
 106689249.564 7  83134341.26146  20302252.078                    20302260.441
        47.500          36.900
 128127098.620 5  99839248.20442  24381765.695                    24381777.422
        33.700          17.800
 115646604.774 7  90114342.00445  22006827.406                    22006836.582
        43.300          30.100
 109927295.808 7  85657753.88245  20918489.844                    20918496.633
        46.000          35.100
 115945982.998 6  90347437.72744  22063758.641                    22063768.891
        40.700          26.200
 12  6 14  0 33  0.0000000  0 10G21G27G31G09G25G18G15G12G22G14
 121830779.205 6  94933056.35742  23183625.258                    23183635.930
        37.100          17.400
 128675767.426 5 100266862.42842  24486190.211                    24486201.383
        34.400          14.800
 124230206.177 6  96802777.36543  23640215.922                    23640226.773
        38.300          19.000
 116283964.604 6  90610952.89344  22128116.750                    22128126.102
        40.900          24.200
 118025206.288 6  91967791.94944  22459447.219                    22459458.668
        40.900          25.200
 106709259.109 7  83149933.08846  20306059.547                    20306068.012
        47.600          36.400
 128193817.596 5  99891236.94642  24394461.039                    24394474.074
        35.400          17.800
 115620784.264 7  90094222.12645  22001914.484                    22001923.254
        43.200          30.300
 109872576.045 7  85615115.12245  20908078.195                    20908083.195
        45.600          34.400
 115906571.524 6  90316727.49444  22056259.672                    22056269.086
        41.100          26.800
 12  6 14  0 33 30.0000000  0 10G21G27G31G09G25G18G15G12G22G14
 121925317.835 6  95006722.71242  23201615.508                    23201626.215
        37.000          16.900
 128771997.119 5 100341846.61842  24504501.094                    24504514.020
        34.300          15.600
 124136083.773 6  96729435.36143  23622304.656                    23622316.098
        39.500          20.100
 116377156.985 7  90683570.22344  22145850.828                    22145860.297
        42.100          25.600
 117939312.944 7  91900862.14944  22443101.242                    22443113.457
        42.600          25.900
 106729754.643 7  83165903.59946  20309960.125                    20309967.594
        47.500          36.600
 128260563.917 6  99943246.97443  24407164.063                    24407175.605
        36.900          18.600
 115595509.629 7  90074527.61745  21997104.344                    21997113.148
        44.700          30.400
 109818204.115 7  85572747.40245  20897731.016                    20897737.086
        46.000          35.200
 115867236.306 7  90286076.68544  22048774.414                    22048783.941
        43.000          27.000
 12  6 14  0 34  0.0000000  0 10G21G27G31G09G25G18G15G12G22G14
 122019946.58316  95080459.23752  23219623.328                    23219633.094
        37.300          16.900
 128868184.951 5                  24522806.086
        33.800
 124042209.501 6  96656286.70243  23604441.320                    23604453.074
        38.800          20.400
 116470564.659 7  90756355.35443  22163625.000                    22163634.859
        42.200          23.900
 117853669.024 7  91834126.69044  22426803.594                    22426816.504
        42.500          26.400
 106750736.360 8  83182252.95746  20313952.719                    20313960.234
        48.300          36.000
 128327337.204 6  99995277.98943  24419869.844                    24419881.750
        38.800          18.600
 115570781.612 7  90055259.03045  21992398.906                    21992407.703
        45.000          31.600
 109764181.733 7  85530652.05045  20887450.719                    20887456.383
        45.800          34.000
 115827976.217 7  90255484.42644  22041303.273                    22041313.129
        42.900          27.400
 12  6 14  0 34 30.0000000  0 10G21G27G31G09G25G18G15G12G22G14
 122114664.517 6  95154265.37742  23237648.211                    23237657.758
        36.800          16.300
 128964331.23015                  24541102.398
        33.000
 123948586.843 6  96583334.11743  23586624.484                    23586637.316
        38.400          19.900
 116564186.416 6  90829307.28343  22181441.008                    22181450.891
        39.900          23.800
 117768279.647 6  91767589.57444  22410555.109                    22410566.414
        40.300          25.600
 106772206.594 7  83198982.98245  20318038.180                    20318046.180
        47.700          35.700
 128394139.503 6 100047331.64042  24432581.930                    24432593.867
        37.300          17.800
 115546604.125 7  90036419.40645  21987797.523                    21987807.133
        44.500          30.600
 109710512.856 7  85488832.15845  20877238.641                    20877243.797
        45.600          34.400
 115788792.845 6  90224951.92944  22033847.320                    22033856.688
        41.800          26.800
 12  6 14  0 35  0.0000000  0 10G21G27G31G09G25G18G15G12G22G14
 122209467.576 6  95228137.74242  23255687.586                    23255698.824
        37.300          16.900
 129060433.398 5                  24559388.797
        32.200
 123855216.231 6  96510577.89243  23568856.445                    23568869.566
        38.400          20.900
 116658019.010 6  90902423.51343  22199296.625                    22199306.520
        40.500          23.600
 117683147.134 6  91701252.60344  22394354.328                    22394366.164
        41.100          28.100
 106794164.742 8  83216093.21146  20322216.641                    20322224.422
        48.300          37.900
 128460970.273 6 100099407.48142  24445298.969                    24445311.273
        36.100          17.400
 115522977.881 7  90018009.33345  21983302.266                    21983311.055
        44.300          32.400
 109657199.056 7  85447288.95345  20867092.273                    20867098.156
        46.700          35.100
 115749685.169 7  90194478.41544  22026405.328                    22026414.191
        42.200          27.300
 12  6 14  0 35 30.0000000  0 10G21G27G31G09G25G18G15G12G22G14
 122304353.201 6  95302074.53343  23273743.555                    23273754.609
        38.400          22.800
 129156490.252 5 100641476.39252  24577667.273                    24577678.395
        34.500          17.400
 123762099.832 7  96438019.70544  23551137.453                    23551149.891
        44.100          27.900
 116752060.063 7  90975702.14145  22217192.023                    22217202.469
        44.800          32.300
 117598275.134 7  91635118.66045  22378203.766                    22378216.387
        45.100          35.600
 106816611.707 8  83233584.33147  20326488.063                    20326496.363
        52.800          44.400
 128527830.525 6 100151506.26443  24458022.289                    24458033.855
        39.500          22.800
 115499904.898 8  90000030.41146  21978911.234                    21978920.402
        48.800          39.200
 109604242.499 8  85406024.10247  20857015.320                    20857021.297
        50.300          42.600
 115710653.346 7  90164064.01845  22018977.461                    22018986.992
        47.000          34.500
 12  6 14  0 36  0.0000000  0 10G21G27G31G09G25G18G15G12G22G14
 122399316.874 5  95376072.07042  23291815.852                    23291825.859
        35.200          16.900
 129252498.49414 100716287.91452  24595935.844                    24595948.066
        28.600          13.900
 123669237.570 6  96365659.59543  23533467.156                    23533478.578
        38.100          21.100
 116846305.450 6  91049140.01044  22235126.375                    22235135.953
        41.700          26.300
 117513665.294 6  91569188.98144  22362103.281                    22362115.129
        41.800          28.900
 106839546.518 8  83251455.59246  20330852.320                    20330860.055
        48.100          37.900
 128594718.707 6 100203626.79943  24470750.102                    24470763.098
        36.700          18.600
 115477385.522 7  89982482.85145  21974626.063                    21974635.152
        43.600          32.000
 109551644.289 7  85365038.49145  20847006.656                    20847012.273
        46.500          35.700
 115671695.608 7  90133707.33944  22011563.953                    22011573.512
        42.600          27.800
 12  6 14  0 36 30.0000000  0 10G21G27G31G09G25G18G15G12G22G14
 122494357.467 5  95450129.63142  23309901.391                    23309911.582
        33.700          14.800
                                  24614198.313
        29.400
 123576632.760 6  96293500.06043  23515843.344                    23515855.074
        38.100          19.300
 116940754.287 6  91122736.40544  22253099.531                    22253109.078
        41.100          25.600
 117429322.620 6  91503467.49244  22346052.969                    22346065.379
        41.600          26.900
 106862971.157 7  83269708.52746  20335310.594                    20335318.133
        47.400          36.000
 128661637.107 5 100255770.90942  24483486.117                    24483497.539
        34.400          15.600
 115455422.877 7  89965369.08745  21970447.031                    21970455.832
        43.900          31.000
 109499408.547 7  85324335.32745  20837066.047                    20837071.996
        46.300          35.100
 115632813.655 6  90103409.70344  22004165.805                    22004174.059
        40.700          25.400
 12  6 14  0 37  0.0000000  0 10G21G27G31G09G25G18G15G12G22G14
 122589469.760 5  95524242.92542  23328000.945                    23328011.086
        34.600          15.600
                                  24632450.305
        29.100
 123484284.716 6  96221540.60443  23498271.875                    23498282.293
        37.900          19.600
 117035401.920 6  91196487.73244  22271111.477                    22271120.691
        41.000          24.700
 117345248.229 7  91437955.04644  22330054.055                    22330066.711
        42.900          27.300
 106886883.849 7  83288341.76945  20339860.563                    20339868.609
        46.200          35.500
 128728584.079 6 100307937.27242  24496224.898                    24496237.914
        36.900          17.400
 115434016.451 7  89948688.77345  21966373.109                    21966382.629
        43.800          30.600
 109447535.122 7  85283914.47945  20827194.742                    20827200.809
        46.600          34.100
 115594005.218 6  90073169.38244  21996779.406                    21996789.301
        40.400          26.500
 12  6 14  0 37 30.0000000  0 10G21G27G31G09G25G18G15G12G22G14
 122684652.413 5  95598411.18342  23346113.555                    23346124.324
        35.100          14.800
                                  24650691.289
        28.600
 123392196.539 6  96149783.71443  23480747.141                    23480759.168
        37.500          19.600
 117130247.547 6  91270393.31543  22289159.438                    22289169.410
        40.500          22.300
 117261447.092 6  91372655.51244  22314107.594                    22314119.457
        41.900          25.300
 106911286.928 7  83307357.12745  20344504.250                    20344512.402
        47.000          34.600
 128795561.483 5 100360127.41842  24508970.680                    24508982.859
        35.200          14.800
 115413169.463 7  89932444.37644  21962406.313                    21962415.340
        43.700          29.100
 109396028.235 7  85243779.24945  20817393.570                    20817399.461
        46.000          33.400
 115555271.762 6  90042987.46644  21989409.938                    21989419.012
        40.900          25.500
 12  6 14  0 38  0.0000000  0  9G21G31G09G25G18G15G12G22G14
 122779900.201 5  95672630.11052  23364238.484                    23364249.500
        34.600          16.300
 123300367.324 6  96078228.58943  23463273.148                    23463285.328
        36.500          19.000
 117225285.847 6  91344449.02743  22307245.203                    22307253.684
        39.900          21.700
 117177919.711 6  91307569.30044  22298213.055                    22298224.723
        41.300          26.500
 106936178.159 7  83326752.86945  20349241.242                    20349249.047
        46.700          34.000
 128862567.074 5 100412339.52442  24521721.516                    24521734.250
        34.600          16.300
 115392880.769 7  89916635.03844  21958545.273                    21958554.402
        43.200          28.300
 109344887.177 7  85203929.10445  20807661.492                    20807667.492
        45.200          32.300
 115516610.430 6  90012861.76544  21982052.023                    21982062.023
        41.000          24.700
 12  6 14  0 38 30.0000000  0  9G21G31G09G25G18G15G12G22G14
 122875211.231 5  95746898.31242  23382373.750                    23382387.027
        30.100          12.600
 123208799.561 6  96006877.18942  23445848.188                    23445859.422
        36.000          17.800
 117320515.183 6  91418653.62143  22325365.641                    22325375.652
        37.700          20.100
 117094670.359 6  91242699.75244  22282371.109                    22282383.102
        41.400          28.100
 106961558.682 7  83346529.87245  20354071.328                    20354078.793
        45.800          33.900
 128929602.513 5 100464574.77642  24534477.227                    24534490.387
        35.200          15.600
 115373153.255 7  89901262.96944  21954791.289                    21954800.391
        42.500          28.300
 109294115.367 7  85164366.66245  20797999.945                    20798005.855
        44.100          32.700
 115478022.325 6  89982793.15344  21974709.328                    21974719.090
        39.900          25.300
 12  6 14  0 39  0.0000000  0  9G21G31G09G25G18G15G12G22G14
 122970584.779 5                  23400523.102
        31.900
 123117497.635 6  95935732.88443  23428473.547                    23428484.770
        37.200          19.600
 117415935.643 6  91493007.14443  22343524.758                    22343534.180
        37.000          19.600
 117011705.036 6  91178051.48444  22266582.797                    22266595.500
        41.100          26.500
 106987431.718 7  83366690.67045  20358994.539                    20359002.348
        45.800          33.700
 128996670.428 5 100516835.48442  24547240.195                    24547253.742
        32.000          14.800
 115353990.697 7  89886331.11444  21951145.234                    21951154.074
        43.200          29.600
 109243717.979 7  85125095.98745  20788409.453                    20788415.648
        44.600          32.500
 115439509.717 6  89952783.35043  21967380.477                    21967390.121
        40.900          23.800
 12  6 14  0 39 30.0000000  0  9G21G31G09G25G18G15G12G22G14
 123066016.511 5                  23418684.266
        32.000
 123026461.047 6  95864795.35743  23411150.531                    23411160.793
        37.600          19.900
 117511543.092 6  91567506.37443  22361717.156                    22361727.465
        37.900          21.800
 116929025.168 6  91113625.66344  22250849.250                    22250861.805
        41.100          26.900
 107013795.780 7  83387234.07045  20364010.883                    20364019.395
        45.400          33.600
 129063769.669 5                  24560007.938
        33.700
 115335393.088 6  89871839.47444  21947605.844                    21947614.797
        41.600          29.100
 109193695.172 7  85086117.17345  20778890.875                    20778896.707
        45.100          33.300
 115401071.016 6  89922831.13544  21960066.180                    21960075.805
        41.100          26.100
 12  6 14  0 40  0.0000000  0  9G21G31G09G25G18G15G12G22G14
 123161504.20415                  23436856.156
        30.100
 122935691.929 6  95794066.27143  23393877.336                    23393888.238
        37.200          18.300
 117607335.367 6  91642149.63243  22379946.109                    22379956.750
        37.700          19.600
 116846634.633 6  91049425.29244  22235171.375                    22235183.457
        41.100          26.000
 107040651.646 7  83408160.70045  20369121.680                    20369129.660
        45.300          34.200
 129130901.279 5 100621485.71452  24572782.984                    24572795.625
        34.500          17.400
 115317362.455 6  89857789.63544  21944174.203                    21944183.359
        41.900          27.300
 109144049.790 7  85047432.47445  20769443.547                    20769449.875
        44.600          32.700
 115362706.592 6  89892936.79544  21952765.125                    21952775.012
        40.900          24.200
 12  6 14  0 40 30.0000000  0  9G21G31G09G25G18G15G12G22G14
 123257042.292 5                  23455034.719
        30.800
 122845189.656 6  95723545.10343  23376654.234                    23376666.066
        37.900          19.300
 117703307.625 6  91716933.13043  22398209.602                    22398219.895
        38.100          21.300
 116764534.214 6  90985450.99144  22219548.047                    22219560.105
        40.800          25.800
 107067997.357 7  83429469.02145  20374325.680                    20374333.523
        45.000          34.400
 129198063.179 5 100673819.61642  24585564.313                    24585576.949
        34.600          16.900
 115299898.044 7  89844181.01144  21940850.813                    21940860.180
        42.600          28.600
 109094781.883 7  85009041.89145  20760067.906                    20760074.234
        44.700          33.400
 115324414.011 6  89863098.45444  21945478.063                    21945487.488
        40.600          25.700
 12  6 14  0 41  0.0000000  0  9G21G31G09G25G18G15G12G22G14
                                  23473224.477
        29.900
 122754956.698 6  95653233.77743  23359484.633                    23359494.570
        37.800          19.000
 117799458.691 6  91791855.93543  22416506.117                    22416516.793
        39.300          22.300
 116682728.287 6  90921706.13244  22203980.188                    22203992.566
        40.600          27.500
 107095834.544 7  83451160.33245  20379622.484                    20379631.348
        45.400          34.600
 129265256.727 5 100726178.17252  24598350.758                    24598362.910
        35.000          15.600
 115283001.709 7  89831015.00644  21937636.375                    21937644.539
        43.400          28.500
 109045894.751 7  84970948.02145  20750764.875                    20750771.797
        45.400          34.400
 115286194.347 6  89833316.91644  21938205.320                    21938214.688
        41.600          25.800
 12  6 14  0 41 30.0000000  0  9G21G31G09G25G18G15G12G22G14
 123448262.26115                  23491422.570
        32.200
 122664995.012 6  95583133.84343  23342364.109                    23342376.023
        38.100          20.100
 117895786.680 6  91866916.60744  22434837.156                    22434847.277
        40.400          25.700
 116601220.777 7  90858193.81144  22188469.461                    22188482.695
        43.000          28.400
 107124164.056 7  83473235.26446  20385013.969                    20385022.063
        47.300          37.100
 129332483.465 6 100778562.55842  24611144.602                    24611156.738
        36.400          15.600
 115266676.121 7  89818293.76644  21934528.922                    21934537.559
        44.000          28.800
 108997391.116 7  84933152.98745  20741535.102                    20741540.910
        46.300          35.000
 115248048.083 7  89803592.57544  21930946.359                    21930955.738
        42.200          27.300
 12  6 14  0 42  0.0000000  0  9G21G31G09G25G18G15G12G22G14
 123543936.313 5  96268036.85452  23509631.242                    23509640.035
        33.500          15.600
 122575303.669 6  95513244.62843  23325296.891                    23325308.625
        40.900          22.200
 117992286.275 6  91942111.01243  22453199.961                    22453210.234
        41.400          23.800
 116520012.249 7  90794914.46744  22173017.203                    22173028.887
        43.000          28.800
 107152983.260 8  83495691.77246  20390497.820                    20390506.266
        48.600          37.300
 129399740.940 5 100830970.85442  24623943.039                    24623955.281
        35.500          16.300
 115250919.957 7  89806016.25745  21931530.945                    21931539.570
        44.800          31.200
 108949270.889 7  84895656.71546  20732378.219                    20732384.215
        47.300          36.200
 115209972.520 7  89773923.32544  21923700.414                    21923710.320
        43.900          27.900
 12  6 14  0 42 30.0000000  0  9G21G31G09G25G18G15G12G22G14
 123639651.096 6  96342619.68842  23527844.648                    23527854.496
        37.100          16.900
 122485886.280 7  95443568.84444  23308281.547                    23308292.957
        42.200          25.800
 118088957.711 6  92017439.32744  22471596.344                    22471606.738
        41.800          27.800
 116439108.355 7  90731872.50545  22157620.398                    22157632.746
        44.600          30.900
 107182295.013 8  83518532.07546  20396076.086                    20396083.719
        51.100          40.000
 129467031.950 6 100883405.28642  24636747.547                    24636759.863
        38.100          17.400
 115235736.872 7  89794185.28345  21928641.344                    21928650.301
        45.400          32.500
 108901538.554 8  84858462.69946  20723294.672                    20723300.449
        48.900          38.900
 115171970.233 7  89744311.19345  21916468.766                    21916478.949
        45.800          31.400
 12  6 14  0 43  0.0000000  0 10G21G27G31G09G25G18G15G12G22G14
 123735402.143 6  96417230.79343  23546065.203                    23546076.340
        39.900          20.400
 130590564.13915                  24850591.273
        34.300
 122396742.923 7  95374106.59945  23291317.914                    23291328.684
        44.300          30.900
 118185796.874 7  92092898.32745  22490024.344                    22490035.184
        45.500          32.700
 116358510.702 7  90669069.17646  22142284.117                    22142295.738
        46.200          36.400
 107212098.051 8  83541755.19347  20401747.117                    20401755.277
        52.900          44.100
 129534355.214 6 100935864.90643  24649558.555                    24649571.711
        40.200          21.800
 115221126.859 8  89782800.84846  21925861.195                    21925870.082
        49.600          37.900
 108854194.881 8  84821571.54747  20714285.688                    20714291.793
        51.600          43.200
 115134039.243 8  89714754.60945  21909251.180                    21909260.590
        48.900          35.800
 12  6 14  0 43 30.0000000  0 10G21G27G31G09G25G18G15G12G22G14
 123831185.473 6  96491867.05443  23564292.164                    23564303.605
        38.600          19.600
 130685662.862 5                  24868687.555
        33.700
 122307873.757 7  95304857.97945  23274407.180                    23274417.543
        44.700          30.400
 118282799.993 7  92168485.07845  22508483.492                    22508494.578
        45.800          32.100
 116278221.357 7  90606506.08546  22127005.430                    22127017.613
        47.800          36.900
 107242391.109 8  83565360.15247  20407511.742                    20407519.676
        51.900          43.500
 129601709.992 6 100988349.08343  24662375.523                    24662388.809
        39.700          20.600
 115207089.911 8  89771862.97946  21923190.039                    21923199.211
        48.400          37.500
 108807240.757 8  84784983.93747  20705350.734                    20705356.547
        50.800          43.300
 115096178.417 8  89685252.68945  21902046.672                    21902055.711
        48.500          35.900
 12  6 14  0 44  0.0000000  0 10G21G27G31G09G25G18G15G12G22G14
 123927001.136 6  96566528.45242  23582524.563                    23582536.340
        37.900          17.800
 130780690.210 5                  24886772.008
        33.200
 122219283.383 7  95235826.67445  23257548.180                    23257559.898
        45.900          30.400
 118379967.736 7  92244200.11945  22526973.984                    22526984.605
        44.600          31.500
 116198246.633 8  90544188.16046  22111786.414                    22111799.152
        48.300          36.900
 107273177.563 8  83589349.58847  20413370.242                    20413378.227
        53.200          43.500
 129669100.020 6 101040860.68043  24675199.547                    24675212.914
        39.100          19.300
 115193630.262 7  89761374.93246  21920628.586                    21920638.102
        46.700          38.000
 108760681.743 8  84748704.20747  20696490.930                    20696496.840
        51.300          42.700
 115058391.038 8  89655808.01746  21894855.664                    21894864.656
        49.300          36.100
 12  6 14  0 44 30.0000000  0 10G21G27G31G09G25G18G15G12G22G14
 124022843.532 6  96641210.74443  23600763.141                    23600774.598
        37.300          18.300
 130875642.057 5                  24904839.883
        34.800
 122130970.671 7  95167011.66245  23240743.352                    23240754.582
        43.800          30.400
 118477295.009 7  92320039.47345  22545494.531                    22545504.887
        45.400          31.100
 116118587.061 7  90482115.78846  22096627.930                    22096640.035
        46.600          36.800
 107304454.860 8  83613721.48647  20419322.148                    20419329.988
        52.200          43.600
 129736522.621 6 101093397.65743  24688029.914                    24688042.988
        38.800          20.600
 115180746.590 7  89751335.69546  21918177.344                    21918186.121
        47.800          37.900
 108714517.139 8  84712731.80647  20687705.922                    20687711.734
        50.900          43.200
 115020674.085 8  89626418.20545  21887678.461                    21887687.758
        48.400          35.900
 12  6 14  0 45  0.0000000  0 10G21G27G31G09G25G18G15G12G22G14
 124118711.702 6  96715913.07542  23619006.375                    23619017.617
        36.200          16.900
 130970519.153 5                  24922892.922
        31.900
 122042938.916 7  95098415.58044  23223991.133                    23224002.895
        44.400          29.600
 118574781.099 7  92396002.54644  22564045.617                    22564055.773
        43.600          29.100
 116039247.666 7  90420292.92045  22081529.930                    22081542.707
        46.000          35.200
 107336225.419 8  83638477.73247  20425367.977                    20425376.172
        50.400          42.100
 129803980.335 6 101145961.96543  24700867.484                    24700879.813
        40.400          20.900
 115168441.999 7  89741747.72345  21915835.820                    21915844.797
        46.000          35.800
 108668750.892 8  84677069.82246  20678996.859                    20679002.887
        50.000          41.800
 114983029.699 7  89597084.93045  21880514.500                    21880524.625
        46.300          33.800
 12  6 14  0 45 30.0000000  0 10G21G27G31G09G25G18G15G12G22G14
 124214601.915 5  96790632.52742  23637253.938                    23637265.125
        34.300          15.600
 131065319.499 4                  24940931.594
        25.900
 121955188.686 6  95030038.89043  23207292.375                    23207303.648
        39.400          22.900
 118672423.168 6  92472087.18343  22582626.883                    22582636.793
        40.800          22.500
 115960231.108 7  90358721.59344  22066493.711                    22066505.605
        42.800          29.900
 107368488.340 7  83663617.65146  20431507.344                    20431515.020
        47.300          36.900
 129871472.887 6 101198553.42642  24713711.086                    24713723.223
        38.000          17.400
 115156716.941 7  89732611.31145  21913605.109                    21913613.324
        44.000          31.700
 108623384.865 7  84641719.69746  20670363.398                    20670369.672
        47.000          37.100
 114945456.920 7  89567807.43944  21873364.898                    21873374.754
        42.600          28.300
 12  6 14  0 46  0.0000000  0  9G21G31G09G25G18G15G12G22G14
 124310510.453 5  96865366.22752  23655504.383                    23655516.313
        30.800          13.900
 121867720.434 6  94961881.89043  23190647.898                    23190658.348
        36.100          19.000
 118770217.823 6  92548290.71443  22601235.867                    22601246.730
        37.100          19.900
 115881539.545 6  90297403.51744  22051519.484                    22051531.680
        40.300          25.400
 107401242.615 7  83689140.43745  20437740.508                    20437748.336
        44.400          33.700
 129938999.980 5 101251171.91442  24726561.586                    24726574.445
        33.900          14.800
 115145571.841 6  89723926.82944  21911484.039                    21911493.266
        41.000          27.100
 108578419.961 7  84606682.12845  20661807.313                    20661813.242
        44.500          33.300
 114907955.138 6  89538585.27843  21866228.711                    21866238.324
        39.700          23.600
 12  6 14  0 46 30.0000000  0  9G21G31G09G25G18G15G12G22G14
 124406436.641 5                  23673757.719
        30.300
 121780537.023 6  94893946.86543  23174057.367                    23174068.680
        36.800          19.300
 118868164.024 6  92624612.32043  22619875.563                    22619885.785
        38.700          20.600
 115803177.730 6  90236342.39944  22036607.188                    22036619.590
        40.900          26.700
 107434490.285 7  83715047.69845  20444067.266                    20444075.516
        45.200          33.700
 130006563.863 5 101303818.91542  24739418.961                    24739431.918
        34.600          14.800
 115135009.112 7  89715696.12044  21909474.008                    21909483.441
        42.200          28.900
 108533860.306 7  84571960.33945  20653328.445                    20653334.145
        45.100          33.400
 114870526.034 6  89509419.75644  21859106.117                    21859115.590
        39.500          24.700
 12  6 14  0 47  0.0000000  0  9G21G31G09G25G18G15G12G22G14
 124502377.516 5                  23692015.555
        30.800
 121693639.765 6  94826234.77942  23157521.031                    23157531.813
        38.800          17.800
 118966259.101 6  92701049.95743  22638542.117                    22638552.598
        39.000          20.600
 115725148.722 7  90175540.61944  22021758.648                    22021771.402
        42.300          26.100
 107468231.223 7  83741339.31945  20450487.461                    20450495.715
        46.300          33.300
 130074164.358 5                  24752281.930
        31.600
 115125030.120 7  89707920.28344  21907574.875                    21907583.633
        42.700          28.300
 108489707.468 7  84537555.55045  20644926.141                    20644932.105
        45.800          33.600
 114833169.155 6  89480310.53243  21851997.266                    21852006.930
        41.100          22.600
 12  6 14  0 47 30.0000000  0  9G21G31G09G25G18G15G12G22G14
 124598329.603 5                  23710275.578
        32.300
 121607029.671 6  94758746.42043  23141040.438                    23141051.320
        37.300          19.000
 119064500.414 6  92777601.54943  22657236.328                    22657247.469
        38.600          19.600
 115647455.168 7  90115000.22744  22006974.453                    22006986.508
        42.900          26.700
 107502465.000 7  83768014.96745  20457002.242                    20457009.820
        47.700          32.700
 130141801.371 4                  24765152.484
        29.900
 115115635.107 7  89700599.49544  21905787.664                    21905795.625
        43.400          26.800
 108445963.450 7  84503469.32145  20636602.047                    20636607.957
        47.100          34.700
 114795883.994 6  89451257.18644  21844902.242                    21844911.785
        41.200          25.700
 12  6 14  0 48  0.0000000  0  9G21G31G09G25G18G15G12G22G14
 124694289.36815                  23728535.711
        31.600
 121520707.524 6  94691482.51243  23124613.383                    23124624.082
        38.800          18.600
 119162885.023 6  92854264.81043  22675958.883                    22675969.266
        37.700          18.600
 115570099.691 7  90054723.25744  21992253.938                    21992266.254
        42.400          26.000
 107537191.198 7  83795074.32445  20463610.648                    20463618.281
        46.900          32.600
 130209474.88714                  24778030.867
        29.400
 115106824.983 7  89693734.47044  21904110.508                    21904119.590
        42.900          28.400
 108402629.757 7  84469702.83045  20628355.391                    20628361.797
        46.500          34.200
 114758669.951 6  89422259.23844  21837820.438                    21837830.063
        41.100          24.300
 12  6 14  0 48 30.0000000  0  9G21G31G09G25G18G15G12G22G14
 124790253.235 5                  23746797.367
        32.800
 121434673.453 6  94624443.00142  23108241.477                    23108252.102
        37.300          17.800
 119261409.507 6  92931037.05743  22694707.180                    22694718.203
        37.900          19.000
 115493084.316 7  89994711.30744  21977598.500                    21977610.484
        42.100          26.000
 107572408.098 7  83822516.05045  20470312.258                    20470319.863
        47.100          32.600
                                  24790916.789
        27.300
 115098599.348 7  89687324.89444  21902545.086                    21902554.902
        43.300          27.900
 108359707.514 7  84436256.94545  20620187.820                    20620193.953
        45.800          34.700
 114721526.431 6  89393316.27844  21830753.180                    21830762.109
        40.100          26.200
 12  6 14  0 49  0.0000000  0  8G21G31G09G25G18G12G22G14
 124886215.61015                  23765059.367
        31.200
 121348926.201 6  94557627.06243  23091924.523                    23091935.195
        38.200          19.300
 119360068.924 6  93007914.42043  22713481.438                    22713491.547
        37.700          18.300
 115416409.652 6  89934964.84744  21963007.531                    21963019.633
        41.800          25.600
 107608113.530 7  83850338.44945  20477106.641                    20477114.484
        46.600          33.000
 115090956.644 7  89681369.54644  21901091.492                    21901100.320
        42.500          28.700
 108317196.125 7  84403131.19645  20612098.344                    20612104.043
        45.700          34.500
 114684450.637 6  89364426.08544  21823697.211                    21823706.652
        39.900          25.200
 12  6 14  0 49 30.0000000  0  8G21G31G09G25G18G12G22G14
 124982178.31815                  23783320.469
        30.100
 121263471.627 5  94491039.14643  23075663.344                    23075673.527
        35.400          19.000
 119458865.674 5  93084898.87343  22732282.781                    22732292.758
        35.600          19.600
 115340083.256 6  89875489.79044  21948483.258                    21948495.344
        39.800          26.000
 107644311.955 7  83878545.00545  20483994.641                    20484002.867
        44.100          32.900
 115083902.329 6  89675872.68144  21899748.828                    21899757.461
        41.500          29.600
 108275102.261 7  84370330.79145  20604087.781                    20604093.652
        44.100          35.300
 114647446.978 6  89335592.11044  21816655.820                    21816664.574
        39.400          25.600
 12  6 14  0 50  0.0000000  0  8G21G31G09G25G18G12G22G14
 125078135.77715                  23801579.594
        30.300
 121178308.017 6  94424678.00643  23059456.391                    23059467.102
        36.900          18.600
 119557794.232 5  93161985.95243  22751108.328                    22751118.797
        35.700          19.300
 115264105.555 6  89816286.43544  21934024.539                    21934037.168
        40.200          25.700
 107681000.451 7  83907133.42445  20490977.078                    20490984.758
        44.400          33.500
 115077434.800 6  89670833.05344  21898518.031                    21898527.191
        41.400          29.600
 108233425.423 7  84337855.35645  20596156.867                    20596162.285
        44.700          35.400
 114610512.685 6  89306812.19144  21809626.117                    21809636.148
        38.600          25.300
 12  6 14  0 50 30.0000000  0  8G21G31G09G25G18G12G22G14
 125174084.098 5                  23819838.547
        31.500
 121093435.946 6  94358544.02043  23043305.898                    23043316.629
        37.800          20.100
 119656851.224 6  93239173.15543  22769958.016                    22769968.672
        36.500          18.600
 115188478.582 7  89757356.36644  21919633.750                    21919645.969
        42.200          26.500
 107718178.050 7  83936102.95545  20498051.273                    20498059.152
        45.800          33.400
 115071553.502 7  89666250.21744  21897399.016                    21897408.090
        43.200          29.300
 108192166.612 7  84305705.64645  20588305.719                    20588311.934
        45.800          34.700
 114573646.951 6  89278085.68244  21802611.773                    21802620.781
        40.100          24.700
 12  6 14  0 51  0.0000000  0  8G21G31G09G25G18G12G22G14
 125270024.462 5                  23838094.016
        32.600
 121008860.463 6  94292641.15943  23027212.375                    23027221.973
        38.100          19.900
 119756038.285 6  93316461.66042  22788832.133                    22788843.598
        37.100          17.800
 115113209.286 7  89698705.02344  21905310.664                    21905323.027
        42.800          26.300
 107755848.647 7  83965456.64845  20505219.805                    20505227.684
        47.000          33.200
 115066263.694 7  89662128.27644  21896392.641                    21896401.430
        43.400          29.500
 108151331.531 7  84273886.12045  20580535.195                    20580540.984
        46.500          34.500
 114536853.797 6  89249415.71444  21795610.031                    21795619.625
        40.400          24.000
 12  6 14  0 51 30.0000000  0  8G21G31G09G25G18G12G22G14
 125365951.89015                  23856350.164
        33.600
 120924580.425 6  94226968.46443  23011173.461                    23011183.703
        38.800          19.600
 119855350.656 6  93393847.87643  22807730.445                    22807741.953
        38.300          18.300
 115038298.468 7  89640333.02144  21891055.258                    21891066.941
        43.400          26.200
 107794009.267 7  83995192.16545  20512481.672                    20512489.535
        46.400          33.200
 115061563.796 7  89658466.01044  21895497.945                    21895506.707
        43.700          28.800
 108110920.135 7  84242396.73345  20572845.102                    20572851.219
        47.600          35.000
 114500130.708 6  89220800.35644  21788621.906                    21788630.938
        41.100          24.200
 12  6 14  0 52  0.0000000  0  8G21G31G09G25G18G12G22G14
 125461864.602 5  97762544.65352  23874601.648                    23874612.797
        32.300          14.800
 120840598.164 6  94161527.81443  22995192.617                    22995202.730
        38.400          20.100
 119954787.046 6  93471330.71843  22826653.203                    22826664.770
        37.600          18.300
 114963750.280 7  89582243.59844  21876869.648                    21876881.633
        42.600          26.100
 107832661.139 7  84025310.48645  20519836.938                    20519844.516
        45.600          33.600
 115057455.338 7  89655264.59144  21894716.359                    21894725.328
        43.400          28.600
 108070935.386 7  84211239.79945  20565235.883                    20565242.633
        45.900          35.700
 114463479.072 6  89192240.65843  21781646.367                    21781656.125
        39.500          22.900
 12  6 14  0 52 30.0000000  0  8G21G31G09G25G18G12G22G14
 125557759.603 4  97837267.83852  23892849.398                    23892862.676
        29.600          14.800
 120756914.846 6  94096320.12043  22979267.773                    22979278.746
        38.000          20.600
 120054345.116 6  93548908.36142  22845598.984                    22845609.785
        37.100          17.400
 114889567.557 7  89524438.93244  21862752.609                    21862764.551
        42.900          26.400
 107871803.858 7  84055811.29245  20527285.586                    20527293.152
        45.000          32.100
 115053939.228 6  89652524.75444  21894047.086                    21894056.523
        41.800          28.400
 108031379.520 7  84180417.05145  20557709.328                    20557715.156
        45.600          35.800
 114426898.433 6  89163736.30744  21774686.695                    21774695.586
        38.900          25.100
 12  6 14  0 53  0.0000000  0  8G21G31G09G25G18G12G22G14
 125653631.403 4                  23911093.984
        29.100
 120673528.744 6  94031344.00643  22963399.508                    22963410.305
        38.200          20.900
 120154019.829 6  93626576.83442  22864565.438                    22864576.609
        36.600          16.900
 114815750.626 6  89466919.29544  21848705.906                    21848717.898
        41.600          27.800
 107911434.438 7  84086692.23145  20534827.813                    20534834.242
        45.500          33.600
 115051013.935 6  89650245.29044  21893490.281                    21893499.527
        41.500          28.100
 107992251.537 7  84149927.72045  20550262.688                    20550269.770
        46.400          35.400
 114390386.388 6  89135285.41344  21767738.102                    21767747.551
        39.600          25.300
 12  6 14  0 53 30.0000000  0  8G21G31G09G25G18G12G22G14
 125749480.966 5                  23929332.594
        32.900
 120590444.667 6  93966603.23943  22947589.055                    22947599.148
        38.600          21.300
 120253812.690 5  93704337.46542  22883556.750                    22883566.313
        34.500          16.300
 114742306.297 6  89409689.97644  21834730.258                    21834742.137
        41.700          27.800
 107951556.384 7  84117956.05745  20542461.453                    20542469.699
        45.600          33.700
 115048683.177 6  89648429.11244  21893046.688                    21893056.168
        40.600          27.800
 107953557.336 7  84119776.40845  20542899.594                    20542905.438
        45.900          35.100
 114353946.561 6  89106890.77144  21760803.969                    21760813.969
        39.500          24.900
 12  6 14  0 54  0.0000000  0  8G21G31G09G25G18G12G22G14
 125845302.608 5                  23947568.203
        33.100
 120507660.927 6  93902096.54443  22931835.875                    22931846.961
        37.800          20.900
 120353718.398 5  93782185.92842  22902567.117                    22902578.879
        34.300          15.600
 114669234.672 7  89352751.11044  21820824.023                    21820836.309
        43.000          28.400
 107992166.553 7  84149600.32745  20550189.594                    20550197.332
        45.900          32.700
 115046944.955 7  89647074.64744  21892715.453                    21892724.719
        42.600          28.700
 107915295.718 7  84089962.15745  20535618.891                    20535624.238
        46.100          34.400
 114317576.271 6  89078550.30843  21753882.828                    21753892.730
        39.700          23.600
 12  6 14  0 54 30.0000000  0  8G21G31G09G25G18G12G22G14
 125941095.655 5                  23965797.352
        34.100
 120425181.086 6  93837826.60643  22916140.703                    22916151.863
        40.100          22.800
 120453736.539 5  93860122.04142  22921600.148                    22921611.441
        35.200          13.900
 114596540.810 7  89296106.61244  21806991.164                    21807003.145
        44.100          28.200
 108033266.836 7  84181626.51445  20558011.086                    20558019.133
        46.500          32.700
 115045802.303 7  89646184.27244  21892498.586                    21892507.668
        43.900          29.400
 107877470.832 7  84060488.22045  20528420.883                    20528426.914
        47.200          35.400
 114281277.747 6  89050265.77843  21746975.492                    21746985.074
        40.400          22.900
 12  6 14  0 55  0.0000000  0  8G21G31G09G25G18G12G22G14
 126036853.699 5                  23984018.977
        33.800
 120343002.065 6  93773791.08743  22900502.695                    22900513.574
        40.300          22.200
 120553860.717 5  93938140.85242  22940653.141                    22940664.699
        34.600          15.600
 114524223.658 7  89239755.64144  21793230.063                    21793242.027
        43.800          29.600
 108074852.794 7  84214031.13945  20565924.344                    20565932.527
        47.100          32.700
 115045251.676 7  89645755.20845  21892393.570                    21892403.246
        44.300          31.000
 107840081.069 7  84031353.33745  20521305.805                    20521311.922
        47.300          35.200
 114245046.728 6  89022033.86943  21740081.203                    21740090.230
        39.800          23.800
 12  6 14  0 55 30.0000000  0  8G21G31G09G25G18G12G22G14
 126132578.682 5                  24002234.609
        34.100
 120261129.804 6  93709994.60743  22884923.023                    22884933.988
        39.600          21.500
 120654093.776 5  94016244.39242  22959728.406                    22959739.109
        33.700          14.800
 114452291.142 7  89183704.38544  21779540.695                    21779553.730
        43.600          28.100
 108116929.447 7  84246818.11645  20573930.930                    20573939.457
        46.600          32.600
 115045298.310 7  89645791.53445  21892402.984                    21892411.434
        43.800          30.700
 107803132.805 7  84002562.48145  20514275.633                    20514281.313
        46.300          34.800
 114208888.529 6  88993858.68144  21733199.570                    21733209.480
        39.600          25.300
 12  6 14  0 56  0.0000000  0  8G21G31G09G25G18G12G22G14
 126228261.936 5                  24020442.766
        32.200
 120179559.594 6  93646433.50443  22869401.367                    22869410.668
        38.400          23.200
 120754427.545 5  94094426.51542  22978819.086                    22978831.438
        31.300          16.300
 114380740.243 7  89127950.47944  21765925.773                    21765938.078
        42.600          28.200
 108159489.936 7  84279982.11845  20582030.078                    20582038.270
        44.700          32.100
 115045936.971 6  89646289.18144  21892523.852                    21892534.063
        41.700          29.700
 107766622.035 7  83974112.53045  20507327.477                    20507333.199
        44.400          35.100
 114172797.388 6  88965735.75843  21726332.648                    21726342.191
        38.900          23.000
 12  6 14  0 56 30.0000000  0  8G21G31G09G25G18G12G22G14
 126323909.849 5                  24038645.180
        30.300
 120098301.814 6  93583115.84243  22853937.695                    22853948.352
        38.700          22.600
 120854869.020 5  94172692.48242  22997931.844                    22997945.426
        30.500          15.600
 114309583.047 7  89072503.37344  21752385.586                    21752397.156
        42.000          27.800
 108202543.209 7  84313530.08245  20590222.711                    20590231.242
        44.900          32.100
 115047177.403 6  89647255.74144  21892759.563                    21892768.949
        41.300          27.900
 107730559.854 7  83946012.12845  20500464.563                    20500470.738
        45.600          35.200
 114136782.373 6  88937672.14244  21719480.336                    21719488.180
        37.900          24.500
 12  6 14  0 57  0.0000000  0  8G21G31G09G25G18G12G22G14
 126419510.62815                  24056837.781
        32.400
 120017347.941 6  93520035.00644  22838531.586                    22838543.441
        41.700          24.500
 120955406.389 5  94251033.18142  23017065.203                    23017076.988
        32.400          16.300
 114238813.343 7  89017358.18644  21738918.305                    21738929.672
        43.500          29.600
 108246079.572 7  84347454.50245  20598507.750                    20598515.836
        46.500          32.700
 115049011.276 7  89648684.74444  21893109.414                    21893117.879
        43.100          29.400
 107694939.339 7  83918255.88546  20493686.320                    20493692.461
        47.000          36.000
 114100834.033 6  88909660.51744  21712637.664                    21712647.164
        40.900          25.600
 12  6 14  0 57 30.0000000  0  8G21G31G09G25G18G12G22G14
 126515066.831 5                  24075021.750
        32.400
 119936704.519 6  93457196.05943  22823185.305                    22823197.777
        39.400          22.300
 121056043.168 5  94329451.39942  23036215.555                    23036226.820
        34.000          15.600
 114168439.495 7  88962521.47144  21725526.164                    21725537.652
        42.700          29.600
 108290104.308 7  84381759.44345  20606885.719                    20606893.453
        45.600          32.100
 115051443.923 6  89650580.31644  21893571.180                    21893580.914
        41.700          28.300
 107659767.590 7  83890849.31845  20486994.203                    20486999.609
        45.500          35.900
 114064958.365 6  88881705.50044  21705810.328                    21705819.543
        39.800          25.000
 12  6 14  0 58  0.0000000  0  8G21G31G09G25G18G12G22G14
 126610573.726 5                  24093197.133
        32.300
 119856370.934 6  93394598.55543  22807899.523                    22807909.977
        39.900          22.900
 121156775.016 5  94407943.64942  23055383.688                    23055395.184
        33.800          15.600
 114098462.430 7  88907993.94144  21712210.211                    21712221.785
        43.900          29.300
 108334614.829 7  84416442.93745  20615355.305                    20615363.594
        47.000          34.300
 115054473.993 7  89652941.41544  21894148.031                    21894157.320
        42.100          28.800
 107625044.552 7  83863792.41946  20480385.914                    20480391.984
        47.900          36.900
 114029153.484 6  88853805.66244  21698997.938                    21699006.965
        40.600          25.400
 12  6 14  0 58 30.0000000  0  8G21G31G09G25G18G12G22G14
 126706029.040 5                  24111360.492
        32.400
 119776348.041 6  93332243.14743  22792672.148                    22792682.191
        40.900          23.500
 121257599.520 5  94486508.10942  23074570.867                    23074582.031
        33.700          15.600
 114028885.028 7  88853777.82544  21698969.984                    21698981.629
        43.400          27.500
 108379610.607 7  84451504.55545  20623917.977                    20623926.098
        47.300          33.600
 115058102.157 7  89655768.55944  21894838.719                    21894847.977
        42.300          27.900
 107590772.068 7  83837086.57546  20473864.234                    20473870.133
        47.600          37.100
 113993419.304 6  88825960.87944  21692198.086                    21692206.609
        41.200          25.900
 12  6 14  0 59  0.0000000  0  8G21G31G09G25G18G12G22G14
 126801430.88615                  24129513.625
        31.600
 119696638.200 7  93270131.68543  22777502.680                    22777513.449
        42.300          23.800
 121358515.628 5  94565143.85842  23093774.578                    23093785.641
        35.200          16.300
 113959711.523 7  88799876.44344  21685806.219                    21685818.316
        44.500          29.700
 108425092.493 7  84486944.95445  20632572.898                    20632580.891
        47.400          33.300
 115062329.664 7  89659062.71544  21895642.984                    21895652.602
        42.600          28.400
 107556953.044 8  83810734.08546  20467428.906                    20467434.488
        48.000          37.200
 113957757.176 6  88798172.25444  21685411.063                    21685420.668
        41.400          25.800
 12  6 14  0 59 30.0000000  0  8G21G31G09G25G18G12G22G14
 126896771.973 5                  24147657.430
        32.000
 119617237.540 6  93208261.11143  22762393.516                    22762403.555
        40.800          22.600
 121459516.707 5  94643874.98152  23112994.844                    23113001.648
        32.900          15.600
 113890939.873 7  88746288.17944  21672720.016                    21672731.168
        42.000          29.300
 108471055.199 7  84522760.00545  20641319.180                    20641327.559
        46.400          33.600
 115067152.785 7  89662820.99644  21896560.930                    21896569.809
        43.000          29.100
 107523584.881 7  83784732.92046  20461079.445                    20461085.004
        47.000          37.100
 113922162.499 6  88770436.17044  21678637.445                    21678646.758
        40.400          25.600
 12  6 14  1  0  0.0000000  4  1
other post-header comments skipped                          COMMENT
 12  6 14  1  0  0.0000000  0  8G21G31G09G25G18G12G22G14
 126992054.57415                  24165789.266
        32.300
 119538152.000 7  93146636.11644  22747343.797                    22747354.723
        42.600          24.100
 121560605.292 5  94722645.27442  23132230.844                    23132240.809
        34.500          13.900
 113822578.128 7  88693019.34244  21659710.438                    21659722.617
        44.900          29.400
 108517503.488 8  84558953.45445  20650158.117                    20650166.074
        48.600          33.500
 115072576.332 7  89667047.12845  21897593.383                    21897602.566
        45.300          30.900
 107490674.342 7  83759088.35246  20454816.320                    20454822.129
        47.900          36.900
 113886640.674 6  88742756.87844  21671878.141                    21671887.219
        40.200          26.200
 12  6 14  1  0 30.0000000  0  8G21G31G09G25G18G12G22G14
 127087276.849 5                  24183910.813
        33.500
 119459383.427 7  93085258.10344  22732354.516                    22732364.805
        43.300          25.200
 121661779.889 5  94801482.45742  23151484.500                    23151494.762
        33.700          14.800
 113754629.669 7  88640072.53945  21646780.484                    21646791.816
        45.000          31.100
 108564437.128 8  84595525.09445  20659089.438                    20659097.707
        48.900          35.200
 115078601.060 7  89671741.70845  21898740.016                    21898748.605
        45.700          32.100
 107458223.830 8  83733802.24146  20448641.094                    20448647.000
        49.500          38.100
 113851192.339 7  88715134.83544  21665132.383                    21665141.602
        43.600          27.400
 12  6 14  1  1  0.0000000  0  8G21G31G09G25G18G12G22G14
 127182429.081 5  99103252.75552  24202016.617                    24202026.891
        33.100          13.900
 119380925.795 7  93024122.36344  22717424.391                    22717434.816
        43.200          25.600
 121763031.421 6  94880379.73442  23170751.086                    23170763.020
        36.900          15.600
 113687090.334 7  88587444.52245  21633928.039                    21633940.324
        46.000          34.100
 108611848.703 8  84632469.16746  20668111.227                    20668119.730
        50.700          37.100
 115085220.495 7  89676899.69945  21899999.242                    21900008.906
        46.500          34.100
 107426228.133 8  83708870.53246  20442552.734                    20442558.027
        51.000          41.300
 113815810.582 7  88687564.69045  21658399.547                    21658408.391
        45.300          30.400
 12  6 14  1  1 30.0000000  0  8G21G31G09G25G18G12G22G14
 127277514.118 5  99177344.86952  24220111.758                    24220123.156
        34.600          15.600
 119302785.490 7  92963233.90144  22702554.469                    22702565.391
        42.500          24.000
 121864363.254 6  94959339.52742  23190035.359                    23190046.172
        36.900          17.800
 113619968.512 7  88535141.84245  21621155.180                    21621167.320
        44.100          31.100
 108659743.156 8  84669789.49746  20677225.797                    20677233.609
        49.600          36.300
 115092440.726 7  89682525.85245  21901373.086                    21901382.344
        45.100          31.900
 107394694.544 8  83684298.90546  20436552.063                    20436557.555
        50.000          39.800
 113780500.760 7  88660050.58444  21651680.547                    21651689.637
        43.800          29.400
 12  6 14  1  2  0.0000000  0  8G21G31G09G25G18G12G22G14
 127372527.680 5  99251381.11752  24238192.141                    24238204.852
        33.000          13.900
 119224961.652 7  92902592.04344  22687745.609                    22687756.254
        42.500          25.700
 121965771.494 6  95038358.85142  23209332.992                    23209344.152
        37.100          14.800
 113553265.272 7  88483165.33645  21608462.242                    21608474.285
        44.500          31.400
 108708118.005 8  84707484.15345  20686430.859                    20686439.258
        48.800          35.700
 115100259.673 7  89688618.53244  21902861.531                    21902870.582
        45.200          29.100
 107363623.172 8  83660087.45046  20430639.484                    20430645.430
        50.000          39.400
 113745262.025 7  88632591.85844  21644974.703                    21644984.199
        43.900          28.300
 12  6 14  1  2 30.0000000  0  8G21G31G09G25G18G12G22G14
 127467470.767 5  99325362.59342  24256258.406                    24256273.145
        34.500          15.600
 119147459.106 7  92842200.53244  22672997.320                    22673007.754
        42.600          27.000
 122067257.625 6  95117438.92342  23228643.758                    23228656.039
        37.700          17.800
 113486987.265 7  88431520.18945  21595849.070                    21595861.516
        45.900          33.200
 108756976.829 8  84745555.93546  20695728.664                    20695737.031
        50.700          37.100
 115108681.671 7  89695181.11745  21904464.141                    21904473.023
        44.600          31.100
 107333019.735 8  83636240.62646  20424815.352                    20424821.000
        51.000          41.000
 113710098.126 7  88605191.44144  21638282.906                    21638292.207
        45.200          29.900
 12  6 14  1  3  0.0000000  0  9G21G27G31G09G25G18G12G22G14
 127562334.220 6  99399281.92143  24274311.375                    24274324.016
        38.300          19.300
 134324401.54214                  25561066.617
        29.400
 119070272.327 7  92782055.06545  22658308.688                    22658319.438
        46.200          33.000
 122168813.080 6  95196572.97943  23247970.219                    23247981.551
        39.100          20.900
 113421130.886 8  88380203.58446  21583317.609                    21583329.109
        49.800          39.500
 108806312.249 8  84783999.10047  20705116.711                    20705124.898
        52.900          42.300
 115117700.512 8  89702208.78846  21906180.070                    21906189.508
        49.200          36.900
 107302879.640 8  83612754.85247  20419080.195                    20419086.082
        53.700          45.600
 113675002.837 7  88577844.50045  21631604.633                    21631613.820
        47.800          35.200
 12  6 14  1  3 30.0000000  0  8G21G31G09G25G18G12G22G14
 127657118.348 6  99473139.47642  24292348.539                    24292360.879
        37.100          16.900
 118993404.912 7  92722158.44845  22643682.094                    22643692.168
        46.300          32.700
 122270438.424 6  95275761.51343  23267308.469                    23267319.359
        39.900          19.900
 113355701.356 8  88329219.61046  21570866.641                    21570878.652
        49.800          39.700
 108856126.053 8  84822815.03246  20714596.094                    20714603.902
        53.000          41.900
 115127318.733 8  89709703.48946  21908010.445                    21908019.508
        48.200          37.100
 107273206.992 9  83589633.33047  20413433.703                    20413439.262
        54.100          46.200
 113639978.929 8  88550553.17546  21624939.617                    21624949.297
        48.800          36.000
 12  6 14  1  4  0.0000000  0  9G21G27G31G09G25G18G12G22G14
 127751821.444 6  99546933.91043  24310370.305                    24310382.488
        36.200          19.000
                                  25595726.625
        30.100
 118916858.534 7  92662511.96145  22629114.391                    22629125.598
        45.800          33.300
 122372132.455 6  95355003.53643  23286660.188                    23286671.340
        39.300          19.300
 113290702.576 8  88278571.25546  21558497.625                    21558509.906
        49.600          39.300
 108906418.754 8  84862004.11146  20724166.602                    20724173.973
        53.000          41.600
 115137537.618 8  89717666.25346  21909954.383                    21909963.918
        48.700          36.600
 107244004.220 9  83566877.93747  20407876.227                    20407882.164
        54.100          45.800
 113605027.289 8  88523318.16345  21618288.586                    21618298.254
        49.000          35.800
 12  6 14  1  4 30.0000000  0  8G21G31G09G25G18G12G22G14
 127846441.640 6  99620663.72842  24328374.727                    24328387.465
        36.000          16.900
 118840635.105 7  92603117.16345  22614610.086                    22614620.539
        45.600          32.600
 122473893.929 6  95434298.09943  23306024.820                    23306036.281
        39.300          20.400
 113226137.999 8  88228261.24046  21546211.594                    21546222.805
        48.700          39.200
 108957190.337 8  84901566.36047  20733827.742                    20733835.949
        52.400          42.000
 115148358.027 8  89726097.74446  21912014.273                    21912022.832
        50.200          37.100
 107215274.258 8  83544490.96147  20402409.383                    20402414.914
        53.600          45.400
 113570149.064 8  88496140.35045  21611651.313                    21611660.500
        49.300          35.700
 12  6 14  1  5  0.0000000  0  8G21G31G09G25G18G12G22G14
 127940973.777 6  99694324.90942  24346364.148                    24346376.527
        36.200          17.800
 118764732.714 7  92543972.51745  22600166.352                    22600176.813
        45.500          33.600
 122575717.996 6  95513641.48443  23325400.313                    23325412.758
        37.500          19.000
 113162007.743 8  88178289.66446  21534007.922                    21534019.461
        49.100          39.200
 109008437.606 9  84941499.25747  20743579.992                    20743588.453
        54.100          42.500
 115159777.356 8  89734995.94146  21914187.328                    21914196.184
        48.700          38.200
 107187016.050 8  83522471.59447  20397031.773                    20397038.109
        53.800          45.800
 113535342.124 7  88469018.07945  21605027.727                    21605037.590
        47.600          35.200
 12  6 14  1  5 30.0000000  0  8G21G31G09G25G18G12G22G14
 128035417.131 5  99767916.91942  24364336.805                    24364349.219
        35.900          17.800
 118689154.030 7  92485080.14445  22585784.047                    22585794.512
        46.300          34.500
 122677604.561 6  95593033.50543  23344788.828                    23344801.332
        37.100          19.000
 113098316.344 8  88128660.04946  21521887.898                    21521899.387
        49.300          38.400
 109060161.503 8  84981803.57246  20753423.000                    20753430.785
        53.200          41.800
 115171797.313 8  89744362.15546  21916474.172                    21916483.723
        48.300          37.600
 107159233.277 9  83500822.70047  20391745.055                    20391751.191
        54.500          46.400
 113500608.375 7  88441952.84546  21598418.656                    21598427.633
        47.300          36.000
 12  6 14  1  6  0.0000000  0  8G21G31G09G25G18G12G22G14
 128129768.81815  99841437.43552  24382291.039                    24382303.953
        34.400          16.300
 118613899.695 7  92426440.44345  22571463.727                    22571473.844
        47.600          33.900
 122779551.306 6  95672472.45642  23364189.141                    23364200.813
        36.900          17.400
 113035066.327 8  88079374.36746  21509851.805                    21509863.531
        48.600          39.900
 109112361.222 8  85022478.64646  20763356.109                    20763364.047
        52.600          41.400
 115184417.980 8  89754196.46046  21918875.484                    21918885.461
        48.500          37.600
 107131927.081 9  83479545.16047  20386548.750                    20386554.324
        55.000          45.800
 113465947.733 7  88414944.56346  21591822.398                    21591831.758
        47.100          36.100
 12  6 14  1  6 30.0000000  0  8G21G31G09G25G18G12G22G14
 128224027.665 6  99914885.65843  24400229.227                    24400240.832
        37.100          18.600
 118538971.975 7  92368055.26245  22557205.898                    22557215.801
        46.700          33.600
 122881557.499 6  95751957.74443  23383600.039                    23383611.797
        37.900          19.600
 112972261.773 8  88030435.79446  21497900.773                    21497912.352
        49.100          39.000
 109165037.395 8  85063525.00847  20773380.016                    20773388.266
        52.900          42.200
 115197640.411 8  89764499.69046  21921392.109                    21921401.230
        48.400          37.100
 107105100.512 9  83458641.34647  20381443.727                    20381449.371
        54.400          46.200
 113431362.038 7  88387994.71146  21585241.156                    21585250.199
        47.500          36.300
 12  6 14  1  7  0.0000000  0  8G21G31G09G25G18G12G22G14
 128318187.448 6  99988256.67943  24418147.211                    24418158.605
        38.100          18.600
 118464368.258 7  92309922.55945  22543009.313                    22543019.008
        47.000          34.400
 122983617.687 6  95831485.09042  23403021.938                    23403033.188
        36.200          17.800
 112909901.932 8  87981843.75446  21486034.086                    21486045.145
        49.400          39.100
 109218185.752 8  85104939.30447  20783493.820                    20783502.535
        51.500          42.000
 115211461.432 8  89775269.35946  21924022.219                    21924031.027
        49.900          37.200
 107078751.984 9  83438110.04147  20376429.766                    20376435.168
        54.600          45.900
 113396847.769 7  88361100.49646  21578673.469                    21578682.969
        45.900          36.500
 12  6 14  1  7 30.0000000  0  8G21G31G09G25G18G12G22G14
 128412244.108 6 100061547.34243  24436044.836                    24436058.305
        38.600          19.000
 118390087.373 7  92252041.42145  22528873.852                    22528883.660
        46.300          34.700
 123085727.778 5  95911051.34042  23422453.648                    23422464.473
        34.100          17.400
 112847987.366 8  87933598.68546  21474251.680                    21474263.293
        49.000          39.600
 109271803.302 8  85146719.20246  20793697.000                    20793705.180
        52.000          41.100
 115225878.438 8  89786503.44346  21926765.227                    21926774.402
        48.700          36.900
 107052880.930 9  83417950.77747  20371506.617                    20371512.250
        54.500          45.400
 113362403.399 7  88334260.75246  21572118.969                    21572127.770
        47.100          36.000
 12  6 14  1  8  0.0000000  0  8G21G31G09G25G18G12G22G14
 128506200.89316 100134760.15752  24453923.992                    24453937.688
        37.800          16.900
 118316135.909 7  92194416.98245  22514801.031                    22514811.090
        47.000          34.400
 123187891.664 5  95990659.54243  23441894.258                    23441906.234
        33.500          19.300
 112786526.625 8  87885707.25346  21462555.961                    21462567.867
        48.700          39.200
 109325895.126 8  85188868.66546  20803990.109                    20803998.176
        52.200          41.600
 115240897.530 8  89798206.66746  21929623.289                    21929632.348
        48.600          36.800
 107027494.848 9  83398169.42347  20366676.023                    20366681.816
        54.100          46.000
 113328035.095 7  88307480.27546  21565578.828                    21565587.816
        47.200          36.600
 12  6 14  1  8 30.0000000  0  8G21G31G09G25G18G12G22G14
 128600052.352 6 100207890.92442  24471784.289                    24471797.203
        37.200          16.900
 118242511.888 8  92137047.67145  22500790.836                    22500801.078
        48.700          34.800
 123290104.478 5  96070305.87943  23461344.594                    23461356.559
        34.800          18.300
 112725519.686 8  87838169.40246  21450946.844                    21450958.473
        49.400          39.200
 109380457.692 8  85231384.93446  20814373.352                    20814381.125
        52.100          41.400
 115256515.783 8  89810376.76646  21932595.594                    21932604.250
        48.900          37.100
 107002592.801 9  83378765.23947  20361937.234                    20361942.531
        54.600          45.400
 113293740.331 7  88280757.09946  21559052.148                    21559061.320
        46.700          36.200
 12  6 14  1  9  0.0000000  0  8G21G31G09G25G18G12G22G14
 128693798.201 5 100280939.45342  24489623.023                    24489636.656
        35.200          16.300
 118169218.159 7  92079935.72545  22486843.633                    22486853.273
        44.900          30.300
 123392366.510 5  96149990.50742  23480805.039                    23480815.188
        34.300          16.900
 112664971.014 7  87790988.66246  21439425.063                    21439436.918
        46.700          36.200
 109435492.190 8  85274268.94646  20824845.898                    20824853.789
        48.800          37.700
 115272734.965 7  89823015.13745  21935682.094                    21935691.039
        47.300          34.000
 106978178.124 8  83359740.83147  20357291.195                    20357297.070
        51.200          42.200
 113259521.111 7  88254092.80145  21552540.828                    21552549.395
        44.600          32.800
 12  6 14  1  9 30.0000000  0  8G21G31G09G25G18G12G22G14
 128787433.493 5                  24507441.531
        32.500
 118096253.241 7  92023080.00744  22472958.852                    22472969.055
        43.900          26.700
 123494673.109 5  96229709.93242  23500274.102                    23500286.133
        33.900          13.900
 112604881.143 7  87744165.44545  21427990.219                    21428001.824
        45.700          31.900
 109490995.387 7  85317518.18445  20835407.984                    20835416.352
        47.800          33.300
 115289552.950 7  89836120.09545  21938882.797                    21938891.094
        45.900          30.700
 106954250.372 8  83341095.84446  20352738.109                    20352743.707
        49.900          38.900
 113225375.876 7  88227486.14844  21546043.055                    21546052.219
        44.800          29.300
 12  6 14  1 10  0.0000000  0  8G21G31G09G25G18G12G22G14
 128880959.461 5                  24525238.945
        31.800
 118023621.655 7  91966484.03544  22459137.250                    22459147.621
        42.800          25.900
 123597026.097 5  96309465.47442  23519749.305                    23519763.887
        32.400          13.900
 112545256.470 7  87697704.69645  21416644.070                    21416655.227
        46.000          31.700
 109546970.241 7  85361134.92545  20846059.352                    20846067.555
        47.700          32.300
 115306972.971 7  89849694.18044  21942197.031                    21942205.676
        44.700          29.400
 106930814.923 8  83322834.47546  20348277.953                    20348284.582
        49.500          38.400
 113191308.684 7  88200940.31144  21539560.375                    21539569.484
        43.900          27.800
 12  6 14  1 10 30.0000000  0  8G21G31G09G25G18G12G22G14
 128974369.829 5                  24543016.398
        31.200
 117951319.662 7  91910144.89044  22445378.164                    22445388.832
        43.300          24.900
 123699419.527 5                  23539233.141
        31.300
 112486095.097 7  87651604.96045  21405385.680                    21405397.500
        46.000          31.600
 109603411.316 7  85405114.95245  20856799.813                    20856808.199
        46.700          32.300
 115324990.284 7  89863733.64044  21945625.688                    21945635.203
        45.100          28.700
 106907868.479 8  83304954.14046  20343911.867                    20343917.359
        48.900          37.900
 113157315.382 7  88174452.05644  21533092.156                    21533100.684
        43.200          27.800
 12  6 14  1 11  0.0000000  0  8G21G31G09G25G18G12G22G14
 129067661.31715                  24560769.531
        30.100
 117879347.701 7  91854062.89944  22431682.453                    22431692.609
        42.400          25.400
 123801850.971 5                  23558725.781
        34.000
 112427399.290 7  87605868.00945  21394216.289                    21394227.344
        45.700          31.900
 109660317.367 7  85449457.29145  20867628.898                    20867636.867
        46.700          31.900
 115343604.388 7  89878238.17045  21949167.922                    21949176.957
        44.600          30.000
 106885412.650 8  83287456.10946  20339638.555                    20339644.324
        49.000          37.600
 113123395.912 7  88148021.33744  21526637.109                    21526646.105
        43.300          27.100
 12  6 14  1 11 30.0000000  0  8G21G31G09G25G18G12G22G14
 129160833.80714                  24578497.234
        28.300
 117807708.779 7  91798240.44444  22418050.070                    22418060.461
        42.800          25.400
 123904320.604 5                  23578226.844
        33.900
 112369173.910 7  87560497.63245  21383135.977                    21383147.980
        44.500          30.800
 109717689.911 7  85494163.14445  20878546.570                    20878554.332
        46.700          31.900
 115362817.644 7  89893209.52645  21952824.398                    21952833.621
        43.900          30.000
 106863451.195 8  83270343.28846  20335459.961                    20335465.078
        48.200          36.900
 113089553.318 7  88121650.52444  21520197.656                    21520205.484
        43.000          27.600
 12  6 14  1 12  0.0000000  0  8G21G31G09G25G18G12G22G14
 129253881.85014                  24596206.422
        27.300
 117736400.678 7  91742675.73944  22404481.289                    22404490.855
        43.000          27.000
 124006823.879 5                  23597732.336
        30.700
 112311418.514 7  87515493.45145  21372146.570                    21372157.672
        45.000          31.100
 109775524.959 7  85539229.37545  20889552.141                    20889560.629
        46.600          32.400
 115382626.829 7  89908645.26145  21956593.063                    21956602.625
        43.700          30.000
 106841982.614 8  83253614.53846  20331373.969                    20331379.285
        49.400          37.500
 113055784.660 7  88095337.29844  21513770.773                    21513780.039
        42.400          27.100
 12  6 14  1 12 30.0000000  0  7G31G09G25G18G12G22G14
 117665428.847 7  91687373.11244  22390975.367                    22390985.223
        42.700          26.700
 124109363.25414                  23617246.867
        28.900
 112254140.323 7  87470861.14645  21361246.297                    21361257.887
        43.700          32.200
 109833826.411 7  85584659.05045  20900646.539                    20900654.672
        44.900          30.900
 115403035.723 7  89924548.27844  21960477.938                    21960486.891
        42.100          28.900
 106821013.159 7  83237274.72246  20327383.648                    20327389.496
        47.300          37.600
 113022094.957 6  88069085.60844  21507360.633                    21507368.871
        41.400          27.800
 12  6 14  1 13  0.0000000  0  7G31G09G25G18G12G22G14
 117594789.050 7  91632329.19044  22377533.055                    22377543.066
        43.200          27.500
 124211931.987 4                  23636766.336
        29.600
 112197336.958 7  87426598.83045  21350436.969                    21350448.648
        45.400          32.300
 109892587.961 7  85630447.23645  20911828.031                    20911836.738
        46.300          32.100
 115424039.367 7  89940914.73845  21964474.422                    21964483.621
        43.800          31.800
 106800539.388 8  83221321.14046  20323488.195                    20323493.648
        48.600          38.500
 112988479.811 7  88042892.01144  21500962.867                    21500971.707
        42.200          27.900
 12  6 14  1 13 30.0000000  0  7G31G09G25G18G12G22G14
 117524482.602 6  91577545.01944  22364153.813                    22364164.016
        41.900          27.600
 124314528.73814                  23656288.664
        26.800
 112141011.658 7  87382709.02345  21339717.750                    21339730.234
        44.700          31.400
 109951809.222 7  85676593.65045  20923097.797                    20923106.418
        45.800          32.000
 115445637.982 7  89957744.80245  21968584.453                    21968593.402
        43.900          30.600
 106780563.378 8  83205755.43446  20319686.656                    20319691.914
        49.400          38.800
 112954940.239 6  88016757.28644  21494580.648                    21494590.016
        41.500          26.700
 12  6 14  1 14  0.0000000  0  7G31G09G25G18G12G22G14
 117454512.160 7  91523022.65944  22350838.969                    22350849.168
        43.100          26.200
                                  23675820.133
        25.900
 112085168.868 7  87339195.21545  21329091.914                    21329103.496
        46.200          31.700
 110011491.762 7  85723099.48945  20934455.000                    20934463.438
        46.800          31.300
 115467833.635 7  89975040.10045  21972808.430                    21972817.098
        44.400          30.800
 106761088.702 8  83190580.37846  20315980.477                    20315986.270
        48.800          39.100
 112921478.680 7  87990683.38044  21488213.094                    21488222.695
        42.400          28.000
 12  6 14  1 14 30.0000000  0  6G31G25G18G12G22G14
 117384877.839 7  91468762.23644  22337587.734                    22337598.516
        42.700          27.200
 112029810.647 7  87296058.98545  21318557.727                    21318568.977
        46.300          32.300
 110071633.945 7  85769963.50345  20945899.539                    20945908.156
        46.700          31.600
 115490624.878 7  89992799.49345  21977145.242                    21977153.898
        44.000          30.300
 106742116.103 8  83175796.54946  20312370.109                    20312375.953
        49.100          39.100
 112888094.997 7  87964670.14944  21481860.719                    21481869.789
        42.300          27.900
 12  6 14  1 15  0.0000000  0  6G31G25G18G12G22G14
 117315580.626 7  91414764.48744  22324401.234                    22324411.055
        43.900          27.300
 111974939.494 7  87253302.29245  21308115.484                    21308127.230
        46.000          33.000
 110132234.652 7  85817184.81345  20957431.820                    20957440.164
        47.400          33.400
 115514011.701 7  90011022.96345  21981595.781                    21981604.250
        44.600          31.400
 106723647.231 8  83161405.23546  20308855.414                    20308861.152
        49.900          40.300
 112854789.920 7  87938718.17145  21475522.797                    21475532.137
        42.600          30.100
 12  6 14  1 15 30.0000000  0  6G31G25G18G12G22G14
 117246614.803 7  91361024.94344  22311276.961                    22311287.652
        42.900          27.400
 111920551.768 7  87210922.27645  21297765.898                    21297777.793
        46.300          32.100
 110193286.835 7  85864757.91545  20969049.625                    20969057.953
        47.100          33.300
 115537987.146 7  90029705.13245  21986158.523                    21986166.848
        44.400          30.600
 106705677.309 8  83147402.70546  20305436.281                    20305441.754
        49.600          39.600
 112821557.523 7  87912822.83044  21469199.375                    21469208.371
        42.800          29.100
 12  6 14  1 16  0.0000000  0  6G31G25G18G12G22G14
 117177987.645 7  91307549.27944  22298217.633                    22298227.609
        42.600          27.200
 111866656.339 7  87168925.87445  21287509.695                    21287521.727
        45.500          31.400
 110254795.482 7  85912686.71445  20980754.688                    20980763.137
        47.000          32.200
 115562557.225 7  90048850.63645  21990833.664                    21990842.023
        43.200          30.600
 106688214.241 8  83133795.13846  20302113.563                    20302118.609
        49.500          38.700
 112788404.913 7  87886989.66644  21462890.469                    21462899.371
        43.000          28.900
 12  6 14  1 16 30.0000000  0  6G31G25G18G12G22G14
 117109698.595 7  91254337.10544  22285222.297                    22285232.527
        44.700          27.700
 111813254.507 7  87127314.08445  21277347.750                    21277359.695
        46.600          33.100
 110316758.622 8  85960969.68645  20992545.664                    20992553.773
        48.800          32.400
 115587720.363 7  90068458.26445  21995621.922                    21995631.230
        45.400          31.200
 106671258.535 8  83120582.91646  20298887.078                    20298892.633
        49.900          39.400
 112755331.585 7  87861218.27144  21456596.414                    21456605.309
        44.500          29.300
 12  6 14  1 17  0.0000000  0  6G31G25G18G12G22G14
 117041748.380 7  91201388.93545  22272291.852                    22272301.887
        47.000          34.200
 111760348.763 8  87086088.85746  21267280.500                    21267291.512
        50.200          39.400
 110379175.306 8  86009606.03546  21004423.289                    21004431.184
        52.500          39.800
 115613476.329 8  90088527.84946  22000523.078                    22000532.363
        49.600          37.900
 106654811.227 9  83107766.84847  20295756.883                    20295762.523
        54.100          46.400
 112722337.803 8  87835508.86045  21450317.945                    21450326.828
        48.100          35.800
 12  6 14  1 17 30.0000000  0  6G31G25G18G12G22G14
 116974135.294 7  91148703.45845  22259425.711                    22259435.344
        46.900          35.200
 111707939.203 8  87045250.26446  21257307.297                    21257318.762
        51.400          40.300
 110442042.015 8  86058593.04846  21016386.477                    21016394.348
        53.400          40.700
 115639822.183 8  90109057.08646  22005536.734                    22005545.945
        49.800          39.400
 106638871.419 9  83095346.23647  20292723.219                    20292728.875
        55.800          46.700
 112689421.780 8  87809860.04546  21444054.500                    21444063.266
        49.000          37.700
 12  6 14  1 18  0.0000000  0  6G31G25G18G12G22G14
 116906862.905 7  91096283.46045  22246624.563                    22246633.945
        46.800          35.000
 111656031.192 8  87004802.49146  21247429.438                    21247440.859
        51.700          40.900
 110505360.496 8  86107932.10546  21028435.414                    21028443.395
        53.000          40.300
 115666760.131 8  90130047.71846  22010662.672                    22010671.652
        49.800          38.600
 106623443.782 9  83083324.71847  20289787.313                    20289793.016
        55.000          46.100
 112656587.115 8  87784274.61946  21437805.805                    21437814.730
        48.100          37.200
 12  6 14  1 18 30.0000000  0  6G31G25G18G12G22G14
 116839929.524 8  91044127.65345  22233887.188                    22233897.469
        48.300          35.500
 111604624.902 8  86964745.66846  21237646.859                    21237658.629
        51.900          41.200
 110569127.381 8  86157620.56346  21040569.531                    21040578.051
        52.500          40.800
 115694287.798 8  90151497.84546  22015900.992                    22015910.840
        48.900          38.500
 106608527.235 9  83071701.44747  20286948.742                    20286954.590
        55.300          46.700
 112623831.860 8  87758751.06946  21431572.750                    21431581.801
        48.800          38.100
 12  6 14  1 19  0.0000000  0  6G31G25G18G12G22G14
 116773337.959 7  90992238.16046  22221216.016                    22221225.871
        47.900          36.400
 111553724.800 8  86925083.27846  21227961.242                    21227972.703
        52.000          41.600
 110633343.888 8  86207659.38046  21052789.789                    21052798.320
        53.000          40.600
 115722406.196 8  90173408.28246  22021251.266                    22021261.293
        48.500          38.300
 106594125.151 9  83060479.04447  20284208.422                    20284214.012
        54.100          46.400
 112591158.755 8  87733291.53746  21425355.234                    21425364.297
        48.400          37.300
 12  6 14  1 19 30.0000000  0  6G31G25G18G12G22G14
 116707086.519 7  90940613.69744  22208607.719                    22208618.039
        43.000          27.500
 111503331.216 7  86885815.58445  21218371.570                    21218383.219
        47.300          34.500
 110698006.600 7  86258045.86645  21065094.625                    21065103.234
        47.100          32.100
 115751112.701 7  90195776.98545  22026714.469                    22026724.023
        44.200          31.300
 106580236.867 8  83049657.01646  20281565.391                    20281571.137
        49.100          38.500
 112558566.964 7  87707895.34544  21419152.898                    21419162.563
        42.900          29.100
 12  6 14  1 20  0.0000000  0  6G31G25G18G12G22G14
 116641174.420 6  90889253.68044  22196066.055                    22196075.398
        40.600          26.800
 111453444.753 7  86846943.03345  21208879.031                    21208889.680
        45.100          32.600
 110763112.900 7  86308778.01445  21077483.414                    21077491.602
        45.500          31.300
 115780404.954 7  90218602.10345  22032288.383                    22032298.094
        42.000          30.400
 106566862.138 7  83039235.13846  20279020.070                    20279025.668
        47.500          38.900
 112526054.772 6  87682561.18144  21412966.422                    21412975.145
        41.400          28.400
 12  6 14  1 20 30.0000000  0  6G31G25G18G12G22G14
 116575606.536 7  90838161.87944  22183587.891                    22183598.059
        42.600          26.800
 111404072.085 7  86808470.87245  21199483.523                    21199494.148
        46.000          33.000
 110828665.791 7  86359858.15945  21089958.164                    21089966.539
        46.300          31.400
 115810286.854 6  90241886.69344  22037974.664                    22037984.465
        41.900          29.800
 106554006.525 8  83029217.79146  20276574.414                    20276579.980
        48.700          38.800
 112493627.110 7  87657292.90444  21406795.758                    21406804.730
        42.100          28.500
 12  6 14  1 21  0.0000000  0  7G31G09G25G18G12G22G14
 116510377.037 8  90787333.74746  22171175.297                    22171184.746
        48.400          36.400
 125855785.03315                  23949561.266
        31.600
 111355209.384 8  86770396.07046  21190184.656                    21190196.008
        51.600          41.300
 110894657.881 8  86411280.54946  21102516.391                    21102524.359
        51.700          39.000
 115840751.363 8  90265625.28146  22043771.695                    22043781.391
        48.100          38.400
 106541664.917 9  83019600.95547  20274225.539                    20274231.000
        55.400          46.300
 112461278.649 7  87632086.32346  21400639.859                    21400649.234
        47.800          37.400
 12  6 14  1 21 30.0000000  0  7G31G09G25G18G12G22G14
 116445490.830 7  90736773.12445  22158827.930                    22158837.594
        47.600          35.900
 125958592.83815                  23969126.055
        32.800
 111306863.221 8  86732723.76146  21180984.859                    21180995.973
        51.800          41.500
 110961092.234 8  86463047.53546  21115158.477                    21115166.473
        52.200          38.900
 115871802.217 8  90289820.72346  22049680.742                    22049689.922
        49.100          38.300
 106529842.975 9  83010389.05647  20271975.617                    20271981.047
        55.300          46.700
 112429014.095 8  87606945.13446  21394500.102                    21394509.055
        49.100          37.900
 12  6 14  1 22  0.0000000  0  7G31G09G25G18G12G22G14
 116380948.037 7  90686480.08046  22146546.016                    22146555.766
        47.500          36.100
 126061399.02815                  23988689.750
        32.900
 111259035.237 8  86695455.24646  21171883.508                    21171894.750
        52.100          41.800
 111027967.041 8  86515157.71846  21127884.406                    21127892.578
        52.500          39.200
 115903437.752 8  90314471.77446  22055700.688                    22055710.215
        49.600          38.200
 106518541.425 9  83001582.66247  20269824.938                    20269830.555
        55.500          46.000
 112396833.507 8  87581869.35346  21388376.297                    21388385.188
        48.400          37.600
 12  6 14  1 22 30.0000000  0  7G31G09G25G18G12G22G14
 116316744.591 8  90636451.47645  22134328.461                    22134338.547
        48.400          35.800
 126164197.69715                  24008251.234
        33.600
 111211723.186 8  86658588.74946  21162880.250                    21162891.676
        51.900          41.800
 111095276.568 8  86567606.66146  21140692.656                    21140701.598
        52.700          39.300
 115935653.031 8  90339574.57846  22061831.305                    22061840.930
        49.500          39.200
 106507757.105 9  82993179.30047  20267772.711                    20267778.852
        55.100          46.000
 112364733.081 8  87556856.05346  21382267.773                    21382276.781
        49.000          37.700
 12  6 14  1 23  0.0000000  0  7G31G09G25G18G12G22G14
 116252887.371 8  90586692.67645  22122176.438                    22122186.316
        48.300          35.600
 126266993.58015                  24027811.984
        32.600
 111164935.692 8  86622130.99246  21153976.578                    21153988.629
        51.700          41.600
 111163026.013 8  86620398.39946  21153585.258                    21153593.410
        51.400          38.500
 115968453.681 8  90365133.50546  22068072.680                    22068082.133
        49.500          39.000
 106497497.437 9  82985184.76247  20265820.469                    20265826.137
        54.600          46.900
 112332719.625 8  87531910.53346  21376176.039                    21376185.203
        48.100          38.600
 12  6 14  1 23 30.0000000  0  7G31G09G25G18G12G22G14
 116189374.239 7  90537201.97044  22110089.836                    22110100.051
        43.300          28.500
 126369782.55214                  24047373.563
        27.300
 111118672.266 7  86586081.61545  21145172.609                    21145184.766
        46.800          33.900
 111231211.511 7  86673529.92945  21166560.336                    21166569.137
        46.800          31.800
 116001835.817 7  90391145.56145  22074425.375                    22074434.070
        43.700          30.600
 106487760.915 8  82977597.86646  20263968.000                    20263973.438
        50.400          40.200
 112300791.593 7  87507031.56845  21370100.250                    21370109.008
        44.300          30.200
 12  6 14  1 24  0.0000000  0  7G31G09G25G18G12G22G14
 116126204.256 6  90487978.65844  22098069.461                    22098079.113
        41.100          27.900
 126472561.76014                  24066932.102
        28.900
 111072933.796 7  86550441.28545  21136469.617                    21136480.996
        46.400          33.000
 111299830.278 7  86726999.06045  21179617.789                    21179626.930
        46.900          31.400
 116035797.291 7  90417609.04744  22080887.969                    22080897.137
        42.000          28.600
 106478547.366 8  82970418.48046  20262214.344                    20262219.910
        49.100          38.400
 112268948.102 7  87482218.48844  21364040.813                    21364049.840
        43.200          29.600
 12  6 14  1 24 30.0000000  0  7G31G09G25G18G12G22G14
 116063377.636 6  90439022.93444  22086113.906                    22086124.023
        39.900          26.800
                                  24086487.227
        26.400
 111027722.164 7  86515211.48345  21127865.438                    21127877.504
        45.200          31.900
 111368880.574 7  86780804.44244  21192758.289                    21192766.215
        45.800          29.000
 116070337.536 6  90444523.52044  22087460.867                    22087470.230
        41.500          29.100
 106469857.547 7  82963647.20146  20260561.539                    20260566.770
        47.600          38.400
 112237189.378 7  87457471.43844  21357997.180                    21358006.457
        42.300          28.500
 12  6 14  1 25  0.0000000  0  7G31G09G25G18G12G22G14
 116000896.711 7  90390336.54944  22074223.820                    22074234.285
        44.100          28.500
                                  24106039.047
        25.900
 110983041.462 7  86480395.40345  21119363.531                    21119375.066
        47.100          33.000
 111438363.352 8  86834946.84245  21205980.281                    21205988.426
        48.500          30.600
 116105457.033 7  90471889.34244  22094143.727                    22094153.152
        43.700          28.900
 106461694.725 8  82957286.57546  20259007.539                    20259013.473
        51.200          39.100
 112205518.117 7  87432792.55144  21351970.156                    21351979.242
        43.600          29.400
 12  6 14  1 25 30.0000000  0  6G31G25G18G12G22G14
 115938760.858 7  90341919.09044  22062400.242                    22062409.664
        42.900          27.200
 110938892.596 7  86445993.72845  21110961.609                    21110973.285
        46.800          33.000
 111508275.903 7  86889424.11945  21219284.211                    21219291.922
        47.400          30.600
 116141153.716 7  90499704.90744  22100936.188                    22100946.387
        43.700          29.900
 106454058.694 8  82951336.42646  20257554.711                    20257560.047
        49.800          39.400
 112173933.727 7  87408181.35544  21345959.680                    21345968.934
        44.100          29.900
 12  6 14  1 26  0.0000000  0  6G31G25G18G12G22G14
 115876969.025 7  90293769.67144  22050641.719                    22050651.043
        43.200          27.700
 110895276.141 7  86412006.92445  21102661.633                    21102673.176
        45.600          33.000
 111578615.213 7  86944233.92345  21232669.484                    21232677.664
        47.400          30.200
 116177425.057 7  90527968.26944  22107838.469                    22107848.137
        43.000          29.300
 106446948.988 8  82945796.40446  20256201.422                    20256206.973
        49.400          39.000
 112142435.511 7  87383637.30544  21339966.508                    21339975.520
        43.300          29.400
 12  6 14  1 26 30.0000000  0  6G31G25G18G12G22G14
 115815522.288 7  90245889.18744  22038948.086                    22038958.285
        43.500          28.300
 110852195.003 7  86378437.24645  21094463.641                    21094475.324
        47.000          33.800
 111649381.015 7  86999376.06445  21246135.758                    21246143.797
        47.100          30.000
 116214271.183 7  90556679.50544  22114850.805                    22114859.895
        43.700          29.600
 106440367.824 8  82940668.21646  20254949.250                    20254955.027
        49.900          39.900
 112111024.795 7  87359161.44045  21333988.797                    21333997.355
        44.400          30.000
 12  6 14  1 27  0.0000000  0  6G31G25G18G12G22G14
 115754423.264 7  90198279.62744  22027321.844                    22027331.344
        44.300          29.300
 110809653.337 7  86345287.94345  21086368.734                    21086380.070
        46.300          33.700
 111720573.935 7  87054851.01445  21259683.250                    21259691.828
        47.900          31.200
 116251692.924 7  90585839.27244  22121971.500                    22121981.324
        44.200          29.900
 106434318.055 8  82935954.13046  20253798.000                    20253803.672
        49.100          39.400
 112079704.496 7  87334756.04144  21328028.672                    21328037.051
        43.600          29.200
 12  6 14  1 27 30.0000000  0  6G31G25G18G12G22G14
 115693665.969 7  90150936.36044  22015759.477                    22015769.164
        44.600          29.900
 110767647.033 7  86312555.79345  21078374.750                    21078386.504
        47.300          35.100
 111792186.375 8  87110652.84345  21273311.234                    21273319.043
        48.700          31.200
 116289683.231 7  90615442.07744  22129201.523                    22129210.309
        44.100          29.800
 106428794.314 8  82931649.91646  20252746.813                    20252752.586
        50.200          40.900
 112048469.270 7  87310416.94044  21322085.570                    21322093.551
        44.100          29.600
 12  6 14  1 28  0.0000000  0  6G31G25G18G12G22G14
 115633258.467 7  90103865.66744  22004264.922                    22004274.484
        44.600          29.400
 110726185.373 7  86280248.05245  21070485.188                    21070496.691
        46.800          34.000
 111864224.143 7  87166786.12145  21287019.102                    21287027.766
        47.800          31.200
 116328248.683 7  90645493.04044  22136539.922                    22136549.191
        42.400          28.500
 106423805.180 8  82927762.29046  20251797.633                    20251803.152
        49.800          39.900
 112017327.096 7  87286150.35445  21316159.188                    21316167.078
        44.700          30.100
 12  6 14  1 28 30.0000000  0  6G31G25G18G12G22G14
 115573195.380 7  90057063.35344  21992834.750                    21992843.691
        44.600          29.300
 110685264.839 7  86248361.97245  21062698.164                    21062709.473
        46.500          34.300
 111936680.266 7  87223245.38445  21300807.289                    21300815.352
        47.600          31.200
 116367382.812 7  90675987.16944  22143986.422                    22143995.852
        42.600          29.400
 106419346.205 8  82924287.76346  20250949.078                    20250954.461
        48.700          39.400
 111986272.988 7  87261952.38445  21310249.000                    21310258.313
        42.600          30.100
 12  6 14  1 29  0.0000000  0  6G31G25G18G12G22G14
 115513478.806 7  90010531.03645  21981471.000                    21981480.715
        44.200          30.000
 110644889.318 7  86216900.57445  21055015.016                    21055026.176
        46.500          34.700
 112009555.024 7  87280030.86445  21314674.633                    21314683.211
        47.400          31.900
 116407085.348 7  90706924.17445  22151540.836                    22151551.195
        44.300          30.800
 106415420.157 7  82921228.51546  20250202.055                    20250207.219
        47.900          39.800
 111955309.675 7  87237825.16745  21304357.148                    21304365.945
        43.000          30.700
 12  6 14  1 29 30.0000000  0  6G31G25G18G12G22G14
 115454109.703 7  89964269.48145  21970173.438                    21970182.895
        45.700          32.800
 110605061.127 8  86185865.66446  21047435.547                    21047447.426
        49.000          37.600
 112082847.546 8  87337141.87645  21328622.328                    21328630.000
        49.800          34.300
 116447356.305 7  90738304.12345  22159205.328                    22159214.465
        46.100          33.300
 106412028.319 8  82918585.53447  20249556.406                    20249562.016
        51.000          43.000
 111924438.828 7  87213769.98845  21298482.352                    21298491.945
        45.200          33.600
 12  6 14  1 30  0.0000000  0  6G31G25G18G12G22G14
 115395087.157 7  89918277.96246  21958941.992                    21958951.914
        47.600          37.600
 110565781.000 8  86155257.79946  21039960.750                    21039972.500
        52.100          41.600
 112156555.309 8  87394576.45846  21342648.172                    21342656.102
        50.400          38.000
 116488193.363 7  90770125.18546  22166976.281                    22166985.406
        45.800          37.100
 106409170.493 8  82916358.66647  20249012.680                    20249017.832
        53.300          46.200
 111893659.792 7  87189786.35046  21292625.531                    21292634.473
        47.600          37.800
 12  6 14  1 30 30.0000000  0  6G31G25G18G12G22G14
 115336411.809 7  89872556.98946  21947775.523                    21947785.508
        45.600          36.700
 110527051.161 8  86125078.73746  21032590.992                    21032602.574
        52.700          41.800
 112230677.013 8  87452333.58146  21356753.164                    21356761.418
        52.500          39.200
 116529595.465 7  90802386.54546  22174854.797                    22174864.074
        47.300          37.200
 106406847.836 8  82914548.80747  20248570.484                    20248576.082
        52.300          46.300
 111862972.899 7  87165874.52046  21286785.805                    21286794.625
        47.500          37.900
 12  6 14  1 31  0.0000000  0  7G31G09G25G18G12G22G14
 115278084.574 7  89827107.24646  21936676.930                    21936686.398
        46.200          37.300
 127909537.94815                  24340388.914
        31.300
 110488873.833 8  86095330.21346  21025325.719                    21025337.555
        52.000          41.800
 112305211.544 8  87510412.37546  21370936.609                    21370945.445
        52.100          39.400
 116571561.972 8  90835087.70346  22182840.875                    22182850.109
        48.700          37.600
 106405061.441 8  82913156.81247  20248230.820                    20248236.598
        53.500          46.700
 111832379.637 8  87142035.65046  21280964.297                    21280973.199
        48.800          37.600
 12  6 14  1 31 30.0000000  0  7G31G09G25G18G12G22G14
 115220102.651 7  89781926.58346  21925643.547                    21925653.164
        46.900          37.800
 128011983.37215                  24359883.352
        30.500
 110451248.114 8  86066011.49247  21018165.703                    21018177.691
        51.800          42.200
 112380154.380 8  87568809.34546  21385198.172                    21385206.430
        50.600          38.500
 116614088.954 8  90868225.59846  22190933.602                    22190943.227
        48.300          37.600
 106403809.549 8  82912181.31347  20247992.250                    20247998.203
        52.300          45.900
 111801878.423 8  87118268.50246  21275159.867                    21275169.273
        48.000          37.900
 12  6 14  1 32  0.0000000  0  7G31G09G25G18G12G22G14
 115162467.477 7  89737016.13946  21914675.672                    21914685.039
        47.000          37.500
 128114393.544 5                  24379371.781
        31.500
 110414177.047 8  86037124.98747  21011111.789                    21011123.141
        51.600          42.000
 112455505.335 8  87627524.33046  21399536.695                    21399545.422
        51.000          38.800
 116657176.105 7  90901800.00246  22199132.758                    22199142.082
        47.900          37.800
 106403094.254 9  82911623.94847  20247856.156                    20247862.031
        54.100          46.200
 111771471.199 8  87094574.58546  21269373.406                    21269382.320
        48.300          37.600
 12  6 14  1 32 30.0000000  0  7G31G09G25G18G12G22G14
 115105179.821 7  89692376.41146  21903774.492                    21903783.281
        45.000          37.400
 128216767.50114                  24398853.289
        29.400
 110377662.903 8  86008672.43446  21004162.984                    21004174.359
        51.900          41.600
 112531263.395 8  87686556.52846  21413952.945                    21413961.262
        50.500          38.500
 116700822.669 7  90935810.32546  22207438.664                    22207447.395
        47.700          37.200
 106402916.846 9  82911485.71647  20247822.320                    20247828.297
        54.200          46.800
 111741158.895 8  87070954.63246  21263605.391                    21263613.688
        48.500          37.400
 12  6 14  1 33  0.0000000  0  7G31G09G25G18G12G22G14
 115048239.701 7  89648007.55946  21892938.625                    21892948.625
        45.400          37.200
 128319103.82714                  24418326.484
        27.300
 110341707.283 8  85980655.09746  20997321.211                    20997332.398
        51.800          41.400
 112607426.879 8  87745904.63046  21428446.367                    21428454.945
        50.300          37.900
 116745027.538 7  90970255.66746  22215850.445                    22215859.227
        47.900          36.900
 106403277.824 9  82911767.01047  20247891.242                    20247896.387
        54.100          46.600
 111710942.344 8  87047409.27046  21257855.531                    21257863.848
        49.200          37.800
 12  6 14  1 33 30.0000000  0  7G31G09G25G18G12G22G14
 114991646.386 7  89603908.94046  21882169.055                    21882178.570
        46.500          37.200
 128421400.006 5                  24437792.516
        31.200
 110306310.622 8  85953073.31146  20990585.250                    20990596.281
        52.900          41.800
 112683992.276 8  87805565.94246  21443016.070                    21443024.512
        50.900          37.700
 116789787.762 7  91005133.75446  22224367.625                    22224377.371
        47.800          37.000
 106404176.697 8  82912467.43147  20248062.289                    20248067.551
        52.200          46.700
 111680821.206 7  87023938.29346  21252123.258                    21252131.879
        46.700          37.100
 12  6 14  1 34  0.0000000  0  7G31G09G25G18G12G22G14
 114935401.527 7  89560081.79746  21871466.484                    21871476.172
        44.200          37.400
 128523656.372 5                  24457253.398
        33.200
 110271476.338 8  85925929.73146  20983956.523                    20983967.695
        52.200          41.400
 112760960.211 8  87865540.90146  21457662.797                    21457671.230
        49.900          37.000
 116835103.705 7  91040444.87346  22232991.156                    22233000.844
        46.200          36.200
 106405615.928 8  82913588.92247  20248336.008                    20248341.934
        52.400          47.300
 111650797.981 7  87000543.60746  21246410.117                    21246418.590
        46.400          37.600
 12  6 14  1 34 30.0000000  0  7G31G09G25G18G12G22G14
 114879503.013 7  89516524.53946  21860828.805                    21860838.852
        44.600          37.600
 128625869.433 5                  24476701.742
        30.300
 110237204.085 8  85899224.10447  20977434.719                    20977445.941
        52.000          42.300
 112838327.301 8  87925826.88446  21472385.109                    21472393.680
        49.800          37.000
 116880971.903 8  91076186.33646  22241719.273                    22241729.141
        48.100          36.900
 106407593.925 8  82915130.21147  20248712.328                    20248717.840
        51.900          46.600
 111620871.048 7  86977223.95346  21240715.266                    21240723.664
        47.800          37.200
 12  6 14  1 35  0.0000000  0  7G31G09G25G18G12G22G14
 114823953.735 7  89473239.44046  21850258.578                    21850267.984
        44.500          37.300
 128728041.054 5                  24496143.797
        30.500
 110203498.357 8  85872959.91647  20971020.984                    20971032.125
        52.000          42.600
 112916094.013 8  87986424.25646  21487183.641                    21487192.090
        50.500          37.900
 116927394.116 7  91112359.49245  22250553.578                    22250562.090
        47.600          35.600
 106410114.379 8  82917094.20547  20249191.984                    20249197.363
        51.400          47.100
 111591044.156 7  86953982.26646  21235039.367                    21235047.750
        46.400          37.300
 12  6 14  1 35 30.0000000  0  7G31G09G25G18G12G22G14
 114768751.799 7  89430224.96145  21839753.891                    21839763.227
        44.600          34.900
 128830166.779 5                  24515581.047
        30.800
 110170357.915 8  85847136.22746  20964714.281                    20964725.789
        48.600          39.900
 112994256.108 8  88047329.70945  21502057.727                    21502066.164
        48.800          34.100
 116974365.988 7  91148960.95545  22259491.656                    22259500.863
        46.000          32.800
 106413175.101 8  82919479.18747  20249774.703                    20249780.203
        50.500          44.100
 111561315.623 7  86930817.19945  21229381.992                    21229390.543
        43.100          34.600
 12  6 14  1 36  0.0000000  0  6G31G25G18G12G22G14
 114713899.292 7  89387482.79845  21829315.414                    21829325.043
        45.800          31.800
 110137786.701 8  85821756.06946  20958516.508                    20958527.145
        49.500          37.700
 113072814.293 7  88108543.80245  21517007.305                    21517015.340
        47.800          32.000
 117021888.578 7  91185991.53645  22268535.227                    22268544.410
        43.700          30.700
 106416779.123 8  82922287.52246  20250460.477                    20250466.172
        50.500          41.700
 111531688.338 7  86907731.03845  21223744.164                    21223752.980
        45.100          32.700
 12  6 14  1 36 30.0000000  0  6G31G25G18G12G22G14
 114659392.888 7  89345010.30545  21818943.344                    21818952.684
        44.400          32.100
 110105782.803 8  85796817.97746  20952426.078                    20952437.570
        48.600          37.600
 113151763.081 8  88170062.27245  21532030.367                    21532039.074
        48.000          31.900
 117069956.451 7  91223447.01945  22277682.141                    22277691.090
        44.700          31.600
 106420923.458 8  82925516.87646  20251248.844                    20251255.094
        50.000          41.100
 111502159.683 7  86884721.72645  21218125.383                    21218134.016
        45.000          32.900
 12  6 14  1 37  0.0000000  0  6G31G25G18G12G22G14
 114605235.875 7  89302810.07845  21808637.531                    21808646.809
        46.400          34.400
 110074351.096 8  85772325.74546  20946444.523                    20946455.930
        51.900          40.600
 113231104.314 8  88231886.53545  21547128.586                    21547136.969
        49.900          34.200
 117118571.395 7  91261328.77345  22286933.031                    22286942.539
        46.400          33.800
 106425612.284 8  82929170.50647  20252141.070                    20252146.988
        52.500          44.200
 111472733.698 8  86861792.42645  21212525.781                    21212533.957
        48.400          35.800
 12  6 14  1 37 30.0000000  0  6G31G25G18G12G22G14
 114551425.047 8  89260879.62946  21798397.422                    21798407.059
        48.600          37.200
 110043489.977 8  85748278.12747  20940571.898                    20940583.066
        53.000          43.100
 113310833.191 8  88294012.85046  21562300.805                    21562309.270
        52.000          37.300
 117167728.913 8  91299633.29346  22296287.375                    22296297.109
        48.500          37.300
 106430842.527 9  82933246.01547  20253136.523                    20253142.254
        54.500          46.000
 111443408.489 8  86838941.63146  21206945.031                    21206953.730
        50.000          38.900
 12  6 14  1 38  0.0000000  0  6G31G25G18G12G22G14
 114497961.636 7  89219219.86446  21788223.734                    21788233.270
        46.100          38.100
 110013201.838 8  85724676.98947  20934808.508                    20934819.910
        51.900          42.600
 113390948.711 8  88356440.45846  21577546.398                    21577554.828
        51.600          36.800
 117217429.077 7  91338360.67146  22305745.422                    22305754.426
        47.800          36.300
 106436615.792 8  82937744.66347  20254234.805                    20254240.711
        53.400          45.800
 111414185.518 8  86816170.53246  21201384.305                    21201392.914
        48.700          37.900
 12  6 14  1 38 30.0000000  0  6G31G25G18G12G22G14
 114444846.579 8  89177831.57446  21778116.336                    21778125.406
        48.600          37.800
 109983489.066 8  85701524.18747  20929154.539                    20929165.930
        51.900          42.600
 113471450.515 8  88419169.05146  21592865.344                    21592873.781
        51.200          37.300
 117267670.244 8  91377509.61746  22315305.797                    22315315.523
        49.100          37.300
 106442933.585 8  82942667.60347  20255437.141                    20255442.973
        53.200          45.600
 111385066.716 8  86793480.56046  21195842.516                    21195851.691
        49.100          39.200
 12  6 14  1 39  0.0000000  0  6G31G25G18G12G22G14
 114392077.799 8  89136713.07246  21768075.016                    21768084.652
        49.100          38.900
 109954351.014 8  85678819.21847  20923609.398                    20923621.125
        52.400          42.900
 113552333.925 8  88482195.01946  21608256.828                    21608265.520
        51.600          36.500
 117318449.042 8  91417077.46246  22324969.422                    22324978.391
        49.300          37.600
 106449794.031 8  82948013.38947  20256742.617                    20256748.664
        53.600          45.600
 111356050.432 8  86770870.49946  21190321.336                    21190329.746
        49.700          38.700
 12  6 14  1 39 30.0000000  0  6G31G25G18G12G22G14
 114339658.482 8  89095866.89246  21758099.992                    21758109.465
        48.700          38.500
 109925792.246 8  85656565.64347  20918174.797                    20918186.098
        51.600          42.300
 113633600.635 8  88545519.65146  21623721.023                    21623730.473
        51.400          36.300
 117369767.325 7  91457065.69946  22334734.820                    22334744.137
        47.500          37.300
 106457201.120 8  82953785.12947  20258152.117                    20258157.758
        53.900          46.100
 111327141.064 8  86748343.72446  21184819.922                    21184828.828
        48.100          38.300
 12  6 14  1 40  0.0000000  0  6G31G25G18G12G22G14
 114287586.468 8  89055291.34846  21748190.688                    21748200.313
        48.000          38.500
 109897811.948 8  85634762.83147  20912850.289                    20912861.281
        51.700          42.900
 113715246.589 8  88609139.79046  21639258.438                    21639266.871
        52.100          36.900
 117421621.009 7  91497471.13246  22344601.492                    22344611.699
        47.800          36.600
 106465153.081 9  82959981.44447  20259665.539                    20259670.961
        54.100          45.900
 111298337.232 8  86725899.20146  21179338.906                    21179347.938
        48.800          38.400
 12  6 14  1 40 30.0000000  0  6G31G25G18G12G22G14
 114235860.445 8  89014985.39346  21738347.500                    21738356.652
        48.500          38.700
 109870410.176 8  85613410.81647  20907635.672                    20907647.109
        51.900          42.800
 113797268.615 8  88673052.97546  21654867.242                    21654875.453
        51.300          36.800
 117474006.983 7  91538291.32045  22354570.313                    22354580.316
        47.000          35.800
 106473648.800 9  82966601.45347  20261282.344                    20261288.180
        54.100          45.700
 111269638.538 8  86703536.59746  21173877.414                    21173886.340
        49.500          39.200
 12  6 14  1 41  0.0000000  0  6G31G25G18G12G22G14
 114184482.752 8  88974950.86746  21728570.531                    21728579.980
        49.000          38.200
 109843590.657 8  85592512.50847  20902532.438                    20902544.219
        51.900          42.600
 113879667.406 8  88737259.75746  21670546.883                    21670555.707
        50.400          36.400
 117526926.239 7  91579527.05545  22364640.703                    22364650.184
        47.600          34.900
 106482691.073 9  82973647.35947  20263002.734                    20263008.324
        54.700          45.900
 111241048.294 8  86681258.49846  21168437.125                    21168445.879
        48.800          39.200
 12  6 14  1 41 30.0000000  0  6G31G25G18G12G22G14
 114133450.292 7  88935185.37446  21718858.898                    21718869.406
        46.500          38.400
 109817351.641 8  85572066.54947  20897539.336                    20897550.680
        53.700          43.100
 113962438.059 8  88801756.30546  21686297.422                    21686306.215
        50.800          36.100
 117580374.060 7  91621174.67445  22374811.492                    22374820.766
        47.300          35.400
 106492277.318 8  82981117.13247  20264827.211                    20264832.734
        52.500          45.700
 111212564.253 8  86659063.15746  21163016.969                    21163025.820
        49.300          38.600
 12  6 14  1 42  0.0000000  0  6G31G25G18G12G22G14
 114082766.650 7  88895691.66044  21709214.695                    21709224.367
        42.900          29.600
 109791698.078 8  85552076.77645  20892657.469                    20892668.602
        49.100          35.200
 114045581.953 7  88866543.66444  21702119.555                    21702128.398
        46.400          29.300
 117634352.130 7  91663235.47244  22385083.609                    22385093.043
        44.000          28.000
 106502411.408 8  82989013.80346  20266756.297                    20266761.566
        49.300          39.200
 111184190.962 7  86636954.12645  21157617.227                    21157626.578
        45.600          32.000
 12  6 14  1 42 30.0000000  0  6G31G25G18G12G22G14
 114032427.048 7  88856466.04244  21699635.328                    21699644.668
        43.900          29.300
 109766626.469 7  85532540.48545  20887886.766                    20887897.605
        47.200          35.400
 114129092.663 7  88931616.86044  21718010.672                    21718019.727
        45.100          27.900
 117688854.208 7  91705704.58844  22395454.898                    22395463.953
        42.900          28.400
 106513089.123 8  82997334.08646  20268787.852                    20268793.043
        49.100          38.300
 111155924.738 7  86614928.51245  21152238.133                    21152247.316
        43.800          30.200
 12  6 14  1 43  0.0000000  0  6G31G25G18G12G22G14
 113982432.335 7  88817509.18245  21690121.281                    21690130.840
        44.200          30.400
 109742138.732 8  85513459.14145  20883226.570                    20883237.879
        48.000          35.500
 114212969.381 7  88996975.24844  21733972.539                    21733980.668
        46.700          29.100
 117743879.324 7  91748581.25244  22405925.922                    22405934.648
        44.400          27.800
 106524311.126 8  83006078.47846  20270923.016                    20270928.328
        49.200          39.100
 111127767.051 7  86592987.47645  21146880.406                    21146889.191
        43.400          31.200
 12  6 14  1 43 30.0000000  0  6G31G25G18G12G22G14
 113932788.181 7  88778825.47546  21680674.938                    21680683.246
        46.700          38.400
 109718241.859 8  85494838.22947  20878679.195                    20878690.707
        52.800          42.900
 114297215.507 8  89062621.47945  21750003.805                    21750012.715
        50.000          35.900
 117799431.269 7  91791868.44645  22416497.305                    22416506.277
        46.300          34.600
 106536083.655 8  83015251.85947  20273163.359                    20273168.766
        53.000          45.800
 111099724.764 8  86571136.37146  21141543.813                    21141553.074
        49.700          38.300
 12  6 14  1 44  0.0000000  0  6G31G25G18G12G22G14
 113883487.422 7  88740409.35546  21671292.945                    21671302.340
        46.700          38.900
 109694930.091 8  85476673.23147  20874243.156                    20874254.699
        51.100          42.600
 114381822.564 8  89128548.96545  21766103.734                    21766112.613
        49.500          35.700
 117855501.259 7  91835559.31545  22427166.625                    22427175.836
        47.900          34.600
 106548399.975 8  83024848.99147  20275506.875                    20275512.902
        53.300          45.400
 111071791.982 8  86549370.57346  21136228.680                    21136237.379
        50.000          38.000
 12  6 14  1 44 30.0000000  0  6G31G25G18G12G22G14
 113834532.015 7  88702262.33146  21661976.844                    21661986.141
        47.200          38.300
 109672206.715 8  85458966.71747  20869918.930                    20869930.324
        52.400          43.000
 114466790.316 8  89194757.52746  21782272.742                    21782281.699
        48.800          36.000
 117912089.852 7  91879654.30845  22437935.445                    22437943.945
        45.300          33.900
 106561262.427 8  83034871.65247  20277954.805                    20277960.605
        53.700          46.300
 111043971.261 8  86527692.11646  21130934.539                    21130942.852
        50.100          38.200
 12  6 14  1 45  0.0000000  0  6G31G25G18G12G22G14
 113785922.683 7  88664384.97946  21652726.867                    21652736.121
        46.100          37.900
 109650073.732 8  85441720.25147  20865707.203                    20865718.414
        52.000          43.500
 114552117.987 8  89261246.53145  21798510.031                    21798519.059
        50.700          35.600
 117969195.985 7  91924152.59245  22448802.094                    22448811.090
        46.300          33.100
 106574672.251 8  83045320.84847  20280506.297                    20280512.414
        53.500          45.700
 111016264.758 8  86506102.65146  21125662.570                    21125670.547
        49.800          37.700
 12  6 14  1 45 30.0000000  0  6G31G25G18G12G22G14
 113737657.693 7  88626775.95046  21643542.336                    21643551.352
        46.700          38.600
 109628530.273 8  85424933.14147  20861607.320                    20861619.336
        52.600          42.600
 114637801.640 8  89328012.93945  21814815.359                    21814824.262
        50.400          35.700
 118026815.839 7  91969051.14945  22459766.891                    22459776.109
        46.700          33.900
 106588627.456 8  83056195.01447  20283162.055                    20283167.746
        53.300          45.600
 110988671.628 8  86484601.52546  21120411.516                    21120419.332
        51.100          38.700
 12  6 14  1 46  0.0000000  0  6G31G25G18G12G22G14
 113689739.064 7  88589436.81445  21634424.305                    21634433.020
        45.000          34.600
 109607579.696 8  85408608.00846  20857620.914                    20857632.129
        49.900          39.800
 114723841.584 7  89395056.96145  21831188.094                    21831196.883
        47.000          31.800
 118084949.860 7  92014350.34845  22470830.344                    22470839.027
        44.600          30.700
 106603130.815 8  83067496.31247  20285921.695                    20285927.621
        51.500          42.100
 110961195.138 8  86463191.29345  21115182.750                    21115191.434
        49.300          35.700
 12  6 14  1 46 30.0000000  0  6G31G25G18G12G22G14
 113642167.418 7  88552368.03546  21625371.133                    21625380.098
        46.200          37.900
 109587224.045 8  85392746.47447  20853747.180                    20853758.570
        51.800          43.200
 114810236.946 8  89462377.95945  21847628.727                    21847638.039
        49.800          35.400
 118143597.242 7  92060049.59045  22481989.727                    22481999.133
        46.100          35.000
 106618183.108 8  83079225.35747  20288786.250                    20288791.922
        52.600          45.900
 110933836.871 8  86441873.18246  21109976.609                    21109985.371
        49.700          39.600
 12  6 14  1 47  0.0000000  0  6G31G25G18G12G22G14
 113594938.298 7  88515566.16246  21616383.703                    21616391.992
        46.100          37.600
 109567459.676 8  85377345.67047  20849985.984                    20849997.789
        51.200          43.000
 114896980.732 8  89529970.43645  21864135.734                    21864144.934
        49.900          35.400
 118202751.374 7  92106143.71345  22493246.641                    22493255.613
        47.200          35.400
 106633779.707 8  83091378.53347  20291754.211                    20291759.984
        53.700          45.700
 110906593.392 8  86420644.52446  21104792.305                    21104801.258
        50.000          38.800
 12  6 14  1 47 30.0000000  0  6G31G25G18G12G22G14
 113548052.913 7  88479032.14946  21607461.570                    21607470.434
        46.800          37.900
 109548289.232 8  85362407.66947  20846338.289                    20846349.609
        51.600          42.500
 114984072.853 8  89597834.36645  21880709.125                    21880717.863
        49.000          35.900
 118262412.206 7  92152632.64845  22504599.742                    22504608.855
        47.000          35.500
 106649922.604 8  83103957.40747  20294826.266                    20294831.898
        52.300          44.800
 110879467.422 8  86399507.40546  21099630.141                    21099638.684
        50.000          38.500
 12  6 14  1 48  0.0000000  0  6G31G25G18G12G22G14
 113501511.270 7  88442765.93346  21598605.336                    21598614.805
        45.300          37.800
 109529713.888 8  85347933.37547  20842803.750                    20842815.117
        52.000          43.400
 115071511.413 8  89665968.26245  21897348.023                    21897357.152
        48.500          35.100
 118322577.462 7  92199514.65345  22516048.406                    22516057.922
        45.300          34.600
 106666612.011 8  83116962.12747  20298002.078                    20298007.559
        53.000          44.700
 110852460.077 8  86378462.74746  21094490.672                    21094499.633
        49.500          39.200
 12  6 14  1 48 30.0000000  0  6G31G25G18G12G22G14
 113455314.844 7  88406768.74045  21589813.961                    21589823.500
        45.100          34.000
 109511736.002 8  85333924.65246  20839382.867                    20839393.723
        49.300          39.700
 115159295.852 7  89734371.64845  21914052.898                    21914061.441
        46.700          31.000
 118383246.953 7  92246789.56444  22527593.984                    22527602.961
        43.400          29.400
 106683849.372 8  83130393.82946  20301282.383                    20301287.984
        50.800          41.900
 110825573.923 7  86357512.50845  21089374.406                    21089383.551
        46.400          34.700
 12  6 14  1 49  0.0000000  0  6G31G25G18G12G22G14
 113409462.797 7  88371039.89644  21581089.023                    21581098.090
        43.000          27.900
 109494356.297 7  85320382.03345  20836075.141                    20836086.293
        46.100          33.700
 115247423.768 7  89803042.69944  21930823.344                    21930831.793
        43.200          24.900
 118444418.349 6  92294455.58443  22539234.148                    22539243.273
        40.300          22.900
 106701634.474 7  83144252.33246  20304666.289                    20304672.285
        46.700          36.200
 110798809.590 7  86336657.17644  21084281.633                    21084290.590
        43.300          28.900
 12  6 14  1 49 30.0000000  0  6G31G25G18G12G22G14
 113363956.309 6  88335580.30544  21572428.633                    21572438.207
        40.600          27.100
 109477576.525 7  85307306.88245  20832882.023                    20832893.367
        45.700          33.500
 115335894.141 7  89871980.57844  21947659.406                    21947667.313
        42.800          26.200
 118506091.127 6  92342512.26343  22550970.688                    22550979.137
        38.700          22.300
 106719968.346 7  83158538.45846  20308154.844                    20308161.707
        46.200          36.300
 110772169.159 7  86315898.40245  21079212.023                    21079220.965
        42.500          30.300
 12  6 14  1 50  0.0000000  0  6G31G25G18G12G22G14
 113318789.099 7  88300385.08944  21563834.047                    21563843.422
        42.700          27.600
 109461391.926 7  85294695.51045  20829802.211                    20829813.324
        47.000          33.200
 115424699.299 7  89941179.31344  21964557.789                    21964565.555
        42.600          24.500
 118568256.871 6  92390953.10043  22562799.789                    22562808.875
        40.100          22.500
 106738845.257 7  83173247.72946  20311748.094                    20311753.664
        46.600          36.200
 110745647.985 7  86295232.56144  21074165.047                    21074174.160
        42.500          28.900
 12  6 14  1 50 30.0000000  0  6G31G25G18G12G22G14
 113273962.724 7  88265455.48945  21555303.813                    21555313.184
        46.900          33.400
 109445804.879 8  85282549.76046  20826836.172                    20826847.258
        51.600          40.300
 115513838.802 8  90010638.55045  21981520.117                    21981529.055
        48.300          30.000
 118630915.577 7  92439778.03444  22574723.414                    22574733.113
        45.000          28.800
 106758266.607 8  83188381.23947  20315443.352                    20315448.938
        52.300          42.000
 110719248.824 7  86274661.81045  21069141.633                    21069150.453
        47.900          34.800
 12  6 14  1 51  0.0000000  0  6G31G25G18G12G22G14
 113229480.773 8  88230794.27346  21546839.055                    21546848.715
        48.800          37.900
 109430820.060 8  85270873.28247  20823984.781                    20823995.973
        53.400          43.600
 115603314.297 8  90080359.56945  21998546.859                    21998556.059
        48.800          34.200
 118694068.963 7  92488988.39145  22586741.203                    22586750.930
        45.400          33.800
 106778236.016 9  83203941.79847  20319243.375                    20319249.367
        54.400          45.300
 110692976.268 8  86254189.68646  21064142.422                    21064150.867
        50.200          39.900
 12  6 14  1 51 30.0000000  0  6G31G25G18G12G22G14
 113185339.957 8  88196398.86546  21538439.367                    21538448.816
        48.400          38.100
 109416435.208 9  85259664.31647  20821247.547                    20821258.703
        54.100          43.800
 115693120.647 8  90150338.45145  22015636.641                    22015645.418
        48.800          34.100
 118757712.062 7  92538580.35545  22598852.523                    22598861.914
        45.800          33.700
 106798750.722 8  83219927.26647  20323147.602                    20323152.844
        53.400          44.900
 110666828.391 8  86233814.72746  21059166.938                    21059175.332
        49.600          39.500
 12  6 14  1 52  0.0000000  0  6G31G25G18G12G22G14
 113141538.778 8  88162268.12346  21530104.766                    21530113.723
        49.900          38.100
 109402649.835 8  85248922.48347  20818624.039                    20818634.711
        53.700          42.900
 115783254.744 8  90220572.71945  22032788.531                    22032797.684
        48.500          33.600
 118821841.682 7  92588551.45645  22611055.648                    22611065.074
        46.000          33.500
 106819809.323 9  83236336.55247  20327154.594                    20327160.469
        54.200          44.600
 110640805.332 8  86213537.03546  21054214.609                    21054223.313
        50.500          39.200
 12  6 14  1 52 30.0000000  0  6G31G25G18G12G22G14
 113098080.605 8  88128404.64546  21521834.625                    21521843.391
        49.300          38.000
 109389468.425 8  85238651.25147  20816115.508                    20816126.422
        52.700          43.500
 115873717.820 7  90291063.31845  22050003.508                    22050012.621
        47.800          34.600
 118886459.295 7  92638902.76945  22623351.664                    22623361.664
        45.400          32.700
 106841415.211 8  83253172.29047  20331266.250                    20331271.867
        53.600          45.400
 110614911.685 8  86193360.18446  21049287.031                    21049295.645
        49.400          39.200
 12  6 14  1 53  0.0000000  0  6G31G25G18G12G22G14
 113054961.792 8  88094805.59146  21513629.375                    21513638.266
        48.100          38.100
 109376888.312 8  85228848.56447  20813721.453                    20813733.238
        53.100          43.500
 115964504.828 7  90361806.31545  22067279.172                    22067289.238
        47.600          33.600
 118951559.453 7  92689630.09845  22635740.094                    22635749.234
        46.800          33.000
 106863565.064 8  83270431.88747  20335481.336                    20335487.172
        53.500          45.200
 110589145.173 8  86173282.40446  21044383.898                    21044392.090
        50.100          39.600
 12  6 14  1 53 30.0000000  0  6G31G25G18G12G22G14
 113012184.719 8  88061472.81946  21505489.242                    21505498.270
        50.700          38.800
 109364912.795 8  85219516.98447  20811442.898                    20811453.785
        53.200          43.000
 116055616.155 7  90432802.04545  22084617.641                    22084626.672
        47.800          34.200
 119017142.609 7  92740733.83145  22648219.828                    22648228.672
        46.100          33.200
 106886261.165 8  83288117.13347  20339799.961                    20339806.098
        53.700          45.100
 110563509.690 8  86153306.71846  21039505.672                    21039514.121
        49.900          39.800
 12  6 14  1 54  0.0000000  0  6G31G25G18G12G22G14
 112969745.322 7  88028403.18046  21497412.781                    21497422.184
        46.900          38.100
 109353538.826 8  85210654.15047  20809278.492                    20809289.461
        50.800          43.200
 116147045.828 7  90504045.87445  22102015.594                    22102024.961
        47.200          32.700
 119083203.085 7  92792209.48745  22660791.445                    22660800.219
        45.700          33.700
 106909499.933 8  83306225.23047  20344222.500                    20344228.102
        53.800          45.400
 110538002.197 8  86133430.76646  21034651.383                    21034660.316
        49.900          39.900
 12  6 14  1 54 30.0000000  0  6G31G25G18G12G22G14
 112927645.039 8  87995597.76846  21489402.094                    21489410.418
        48.900          38.400
 109342768.739 8  85202261.86947  20807228.930                    20807239.789
        53.000          42.700
 116238793.572 7  90575537.51745  22119475.297                    22119484.359
        47.900          33.400
 119149740.401 7  92844056.70045  22673453.500                    22673462.078
        47.900          34.900
 106933282.465 8  83324757.05347  20348748.297                    20348753.746
        53.800          44.600
 110512626.197 8  86113657.29446  21029822.539                    21029830.934
        49.800          39.200
 12  6 14  1 55  0.0000000  0  6G31G25G18G12G22G14
 112885883.478 8  87963056.32246  21481454.891                    21481463.613
        48.200          38.900
 109332602.968 8  85194340.48447  20805294.109                    20805305.215
        51.800          42.500
 116330857.139 7  90647275.25645  22136994.102                    22137003.973
        47.300          33.600
 119216752.699 7  92896274.06445  22686204.781                    22686214.203
        47.400          33.700
 106957608.431 8  83343712.32647  20353377.242                    20353382.945
        53.700          45.200
 110487382.330 8  86093986.77846  21025019.055                    21025027.711
        49.800          39.600
 12  6 14  1 55 30.0000000  0  6G31G25G18G12G22G14
 112844460.947 7  87930779.06046  21473571.734                    21473581.391
        47.000          39.000
 109323042.771 8  85186890.96547  20803475.422                    20803486.293
        51.300          43.100
 116423234.847 7  90719257.75145  22154573.141                    22154582.680
        46.700          33.000
 119284238.074 7  92948860.02845  22699047.211                    22699055.355
        45.900          33.000
 106982478.423 8  83363091.51247  20358109.633                    20358115.215
        53.100          44.900
 110462272.089 8  86074420.38246  21020240.492                    21020249.063
        49.100          39.500
 12  6 14  1 56  0.0000000  0  7G30G31G25G18G12G22G14
 132372699.10015                  25189706.477
        34.600
 112803374.813 8  87898763.90846  21465753.727                    21465763.055
        48.600          38.600
 109314086.512 8  85179912.06147  20801771.219                    20801782.191
        52.100          43.500
 116515922.457 7  90791481.75545  22172211.148                    22172220.617
        47.300          33.300
 119352192.027 7  93001811.12045  22711977.875                    22711987.602
        46.500          33.100
 107007889.881 8  83382892.62447  20362945.570                    20362951.480
        53.400          44.900
 110437294.917 8  86054957.66746  21015487.641                    21015495.645
        49.800          39.600
 12  6 14  1 56 30.0000000  0  7G30G31G25G18G12G22G14
 132257555.923 4                  25167795.797
        29.900
 112762625.212 7  87867010.98145  21457999.461                    21458008.180
        43.500          33.600
 109305735.290 7  85173404.61646  20800182.336                    20800192.824
        47.300          38.300
 116608918.461 7  90863946.05744  22189907.438                    22189917.395
        42.300          27.900
 119420613.121 6  93055126.22444  22724997.398                    22725008.266
        41.600          27.400
 107033843.148 7  83403115.91646  20367884.633                    20367889.703
        47.600          39.400
 110412452.321 7  86035599.81245  21010760.156                    21010768.266
        45.300          34.600
 12  6 14  1 57  0.0000000  0  6G31G25G18G12G22G14
 112722214.214 7  87835521.91345  21450309.242                    21450319.383
        43.600          30.500
 109297991.973 7  85167370.85345  20798708.430                    20798719.438
        46.500          34.500
 116702222.980 6  90936650.76443  22207663.609                    22207672.531
        41.800          23.500
 119489501.759 6  93108805.67743  22738107.500                    22738117.543
        40.900          23.200
 107060339.894 7  83423762.70345  20372926.438                    20372932.398
        46.900          35.700
 110387747.790 7  86016349.54844  21006059.117                    21006067.305
        44.200          29.900
 12  6 14  1 57 30.0000000  0  6G31G25G18G12G22G14
 112682139.729 7  87804295.06644  21442683.336                    21442692.504
        43.000          29.700
 109290855.169 7  85161809.69945  20797350.055                    20797361.320
        46.700          35.100
 116795832.025 7  91009592.81143  22225476.242                    22225486.219
        42.100          22.800
 119558853.688 6  93162846.09544  22751304.922                    22751314.352
        40.400          24.700
 107087378.297 7  83444831.57046  20378071.617                    20378077.324
        46.900          36.100
 110363180.841 7  85997206.50445  21001384.305                    21001392.707
        44.100          30.300
 12  6 14  1 58  0.0000000  0  6G31G25G18G12G22G14
 112642401.646 7  87773330.35145  21435121.430                    21435130.984
        44.400          30.000
 109284325.626 8  85156721.73845  20796107.680                    20796118.703
        48.100          35.400
 116889743.632 7  91082770.51343  22243346.734                    22243356.801
        43.400          22.800
 119628667.057 7  93217246.08944  22764589.516                    22764599.418
        43.100          24.800
 107114958.328 7  83466322.48746  20383320.000                    20383325.750
        47.800          36.100
 110338752.896 7  85978171.73745  20996735.734                    20996744.008
        45.700          30.500
 12  6 14  1 58 30.0000000  0  6G31G25G18G12G22G14
 112602999.831 7  87742627.67145  21427623.258                    21427633.320
        47.200          31.200
 109278403.940 7  85152107.42545  20794980.867                    20794992.125
        47.900          35.200
 116983955.880 7  91156182.53344  22261275.352                    22261285.527
        44.800          25.300
 119698939.621 7  93272003.92044  22777962.641                    22777971.270
        43.300          26.400
 107143079.666 8  83488235.19046  20388671.430                    20388677.336
        48.300          36.800
 110314465.108 7  85959246.20845  20992114.164                    20992121.945
        46.100          32.100
 12  6 14  1 59  0.0000000  0  6G31G25G18G12G22G14
 112563931.353 7  87712184.72145  21420188.281                    21420197.746
        44.900          30.200
 109273088.225 7  85147965.29045  20793969.211                    20793980.398
        46.300          34.400
 117078464.587 7  91229825.58143  22279260.008                    22279269.688
        42.000          23.800
 119769667.196 6  93327116.28044  22791421.531                    22791430.523
        40.900          25.800
 107171739.674 7  83510567.63146  20394125.297                    20394130.871
        46.800          36.800
 110290316.562 7  85940429.17345  20987519.102                    20987526.641
        44.500          30.600
 12  6 14  1 59 30.0000000  0  6G31G25G18G12G22G14
 112525197.076 7  87682002.18144  21412817.883                    21412827.238
        44.500          29.800
 109268379.857 7  85144296.43445  20793073.336                    20793084.441
        47.200          33.800
 117173268.234 7  91303698.43543  22297300.695                    22297310.336
        42.500          23.200
 119840848.332 6  93382582.03543  22804967.047                    22804975.930
        40.200          22.200
 107200938.513 7  83533319.94646  20399681.648                    20399687.355
        47.300          36.200
 110266309.427 7  85921722.32745  20982950.375                    20982958.617
        44.900          30.900
 12  6 14  2  0  0.0000000  4  1
other post-header comments skipped                          COMMENT
 12  6 14  2  0  0.0000000  0  6G31G25G18G12G22G14
 112486792.621 7  87652076.66644  21405509.734                    21405518.801
        44.300          29.800
 109264275.354 7  85141098.11245  20792292.453                    20792303.051
        47.300          34.500
 117268360.872 7  91377796.46643  22315396.266                    22315405.504
        42.100          22.600
 119912477.323 6  93438396.78943  22818596.477                    22818606.281
        40.200          22.200
 107230672.619 7  83556489.36746  20405339.742                    20405345.711
        46.400          36.200
 110242441.323 7  85903123.82245  20978408.219                    20978416.512
        44.700          30.600
 12  6 14  2  0 30.0000000  0  7G30G31G25G18G12G22G14
 131335809.69415                  24992389.727
        32.500
 112448730.386 7  87622417.81245  21398266.938                    21398275.664
        47.400          33.600
 109260787.705 8  85138380.47346  20791628.898                    20791640.000
        49.600          38.400
 117363752.841 7  91452127.77644  22333548.219                    22333558.344
        45.100          27.300
 119984563.965 6  93494568.14743  22832314.953                    22832323.785
        41.600          23.600
 107260953.618 8  83580084.91846  20411101.953                    20411108.090
        49.300          39.200
 110218726.110 7  85884644.45145  20973895.703                    20973903.676
        47.500          34.000
 12  6 14  2  1  0.0000000  0  7G30G31G25G18G12G22G14
 131220549.53215                  24970456.016
        30.500
 112410997.591 7  87593015.65745  21391086.883                    21391094.941
        45.400          31.200
 109257905.192 7  85136134.35245  20791080.148                    20791091.383
        46.400          35.100
 117459429.780 7  91526681.13243  22351755.914                    22351765.844
        42.900          21.800
 120057094.282 6  93551085.22143  22846116.039                    22846125.902
        39.900          23.000
 107291769.083 7  83604096.94045  20416966.070                    20416971.637
        46.600          35.800
 110195152.615 7  85866275.50645  20969410.320                    20969417.906
        44.800          31.900
 12  6 14  2  1 30.0000000  0  7G30G31G25G18G12G22G14
                                  24948521.805
        28.600
 112373593.040 7  87563869.26644  21383968.727                    21383977.508
        44.200          29.800
 109255627.293 7  85134359.36045  20790646.859                    20790657.660
        46.900          34.900
 117555388.611 7  91601454.18243  22370016.398                    22370025.891
        42.000          22.200
 120130065.248 6  93607945.67443  22860002.156                    22860013.188
        40.600          22.300
 107323117.869 7  83628524.53445  20422932.055                    20422937.672
        46.100          35.600
 110171721.499 7  85848017.50844  20964950.797                    20964958.711
        44.300          29.900
 12  6 14  2  2  0.0000000  0  7G30G31G25G18G12G22G14
 130990022.54314                  24926589.805
        29.400
 112336523.218 7  87534983.69844  21376914.305                    21376923.680
        43.600          29.600
 109253960.668 7  85133060.68545  20790329.648                    20790340.918
        45.500          34.800
 117651633.886 6  91676450.38443  22388330.883                    22388340.711
        40.900          21.700
 120203481.001 6  93665152.70943  22873973.563                    22873983.246
        39.500          22.000
 107355005.909 7  83653372.34045  20428999.352                    20429005.602
        46.400          35.700
 110148440.772 7  85829876.71544  20960520.289                    20960528.371
        44.200          29.900
 12  6 14  2  2 30.0000000  0  7G30G31G25G18G12G22G14
 130874757.462 5                  24904654.336
        32.800
 112299777.617 7  87506350.77245  21369922.422                    21369931.012
        46.300          31.800
 109252895.729 7  85132230.87345  20790126.586                    20790138.633
        47.500          35.200
 117748153.751 7  91751660.51343  22406698.367                    22406708.164
        44.300          22.800
 120277329.547 7  93722696.97343  22888026.742                    22888035.777
        42.000          23.900
 107387422.591 7  83678632.07245  20435168.227                    20435174.590
        46.800          35.900
 110125301.494 7  85811846.11645  20956117.008                    20956125.371
        45.000          31.400
 12  6 14  2  3  0.0000000  0  7G30G31G25G18G12G22G14
 130759500.706 5                  24882721.734
        31.500
 112263364.856 7  87477977.21345  21362993.234                    21363002.242
        46.200          31.400
 109252441.946 7  85131877.27845  20790040.367                    20790051.863
        46.800          35.700
 117844955.283 7  91827090.19143  22425118.938                    22425128.629
        42.400          22.800
 120351617.521 6  93780583.70243  22902163.242                    22902171.465
        41.900          22.900
 107420376.799 7  83704310.64345  20441439.836                    20441445.391
        47.300          35.900
 110102314.251 7  85793933.99145  20951742.680                    20951750.789
        44.900          30.700
 12  6 14  2  3 30.0000000  0  7G30G31G25G18G12G22G14
 130644252.189 5                  24860790.602
        33.200
 112227281.672 7  87449860.46145  21356126.938                    21356135.598
        46.600          33.500
 109252596.816 7  85131997.95745  20790069.703                    20790081.055
        47.700          35.900
 117942032.801 7  91902734.92244  22443592.844                    22443602.289
        43.200          24.100
 120426340.098 6  93838809.03744  22916382.359                    22916391.090
        41.800          24.700
 107453865.188 7  83730405.45646  20447812.344                    20447817.734
        47.600          37.500
 110079477.579 7  85776139.20045  20947397.086                    20947405.320
        45.500          32.100
 12  6 14  2  4  0.0000000  0  7G30G31G25G18G12G22G14
 130529013.166 5                  24838861.641
        34.200
 112191526.763 7  87421999.50245  21349322.313                    21349331.867
        47.600          33.000
 109253359.403 8  85132592.19346  20790214.680                    20790226.070
        48.600          36.900
 118039383.422 7  91978592.40543  22462117.891                    22462127.418
        42.800          23.500
 120501494.008 7  93897370.44144  22930683.664                    22930692.414
        43.400          24.700
 107487886.114 7  83756915.24246  20454286.039                    20454291.879
        47.800          38.200
 110056791.904 7  85758462.06045  20943080.164                    20943088.523
        46.400          33.500
 12  6 14  2  4 30.0000000  0  7G30G31G25G18G12G22G14
 130413785.595 5 101621253.80352  24816933.891                    24816948.398
        34.600          15.600
 112156098.966 8  87394393.43446  21342580.828                    21342590.324
        48.600          37.900
 109254729.027 8  85133659.43146  20790475.297                    20790486.871
        51.000          40.600
 118137004.526 7  92054660.66144  22480694.398                    22480704.867
        43.300          28.600
 120577076.082 7  93956265.53945  22945066.719                    22945076.066
        45.800          30.200
 107522438.231 8  83783838.93846  20460861.148                    20460867.047
        49.000          41.400
 110034257.735 7  85740902.97546  20938792.164                    20938800.516
        47.000          37.300
 12  6 14  2  5  0.0000000  0  7G30G31G25G18G12G22G14
 130298573.252 5 101531478.19742  24795010.273                    24795024.445
        35.000          16.900
 112120998.835 8  87367042.70446  21335901.695                    21335910.758
        50.500          39.900
 109256706.899 8  85135200.64147  20790852.125                    20790863.078
        52.700          42.800
 118234894.352 7  92130938.33945  22499322.555                    22499332.543
        45.200          31.600
 120653084.971 7  94015493.18145  22959530.305                    22959540.348
        47.200          33.600
 107557522.002 8  83811176.91347  20467537.195                    20467543.445
        50.700          43.900
 110011877.628 8  85723463.96046  20934533.578                    20934541.836
        49.500          40.200
 12  6 14  2  5 30.0000000  0  7G30G31G25G18G12G22G14
 130183378.185 5 101441715.99842  24773089.625                    24773103.613
        35.400          17.800
 112086225.435 8  87339946.56546  21329284.383                    21329293.629
        50.900          40.900
 109259292.849 8  85137215.67747  20791344.242                    20791355.500
        51.000          43.200
 118333050.670 7  92207423.65245  22518000.844                    22518011.137
        44.300          31.100
 120729518.214 7  94075051.50045  22974075.148                    22974084.797
        46.700          33.200
 107593136.381 8  83838928.34247  20474314.344                    20474320.902
        50.200          43.900
 109989652.365 8  85706145.59146  20930304.172                    20930312.070
        49.600          40.000
 12  6 14  2  6  0.0000000  0  7G30G31G25G18G12G22G14
 130068202.992 5 101351969.23842  24751172.891                    24751186.156
        35.000          17.400
 112051778.404 8  87313104.71946  21322729.211                    21322738.738
        51.300          39.900
 109262486.705 8  85139704.40447  20791951.570                    20791962.594
        50.300          42.900
 118431471.029 7  92284114.70945  22536729.859                    22536739.762
        45.500          31.600
 120806373.345 7  94134938.55945  22988700.359                    22988709.945
        47.300          34.100
 107629280.613 8  83867092.64247  20481192.742                    20481198.590
        50.500          43.900
 109967583.056 8  85688948.73246  20926104.563                    20926112.309
        49.100          39.900
 12  6 14  2  6 30.0000000  0  7G30G31G25G18G12G22G14
 129953048.600 5 101262238.74643  24729258.117                    24729272.770
        35.100          18.300
 112017655.641 8  87286515.56246  21316236.023                    21316245.180
        50.200          40.100
 109266287.004 8  85142665.68547  20792674.789                    20792686.039
        51.900          42.300
 118530151.585 7  92361008.51745  22555508.344                    22555517.629
        44.800          30.900
 120883646.536 8  94195151.38645  23003405.344                    23003414.379
        48.500          34.500
 107665952.333 8  83895667.98347  20488170.945                    20488176.996
        50.600          44.500
 109945669.862 8  85671873.51846  20921934.289                    20921942.727
        48.800          39.600
 12  6 14  2  7  0.0000000  0  7G30G31G25G18G12G22G14
 129837920.559 6 101172528.77142  24707350.625                    24707364.652
        37.200          17.800
 111983859.179 8  87260180.66846  21309804.875                    21309813.891
        50.300          40.200
 109270696.524 8  85146101.68347  20793514.242                    20793525.070
        50.300          43.100
 118629093.014 7  92438105.60845  22574335.805                    22574345.867
        46.000          30.300
 120961337.811 7  94255689.98745  23018189.523                    23018198.762
        47.800          33.700
 107703153.732 8  83924656.06647  20495250.172                    20495256.059
        51.000          44.100
 109923916.708 8  85654923.01746  20917794.734                    20917803.063
        49.800          40.500
 12  6 14  2  7 30.0000000  0  7G30G31G25G18G12G22G14
 129722820.602 5 101082840.64242  24685447.461                    24685461.492
        34.800          16.300
 111950387.875 8  87234099.14946  21303435.586                    21303444.563
        50.900          40.200
 109275714.463 8  85150011.78047  20794468.766                    20794479.781
        50.200          42.700
 118728292.300 7  92515403.58645  22593213.664                    22593223.316
        45.100          31.100
 121039444.181 7  94316552.03245  23033052.016                    23033061.945
        47.200          33.600
 107740883.219 8  83954055.62747  20502429.656                    20502435.676
        50.900          43.300
 109902324.083 8  85638097.59146  20913686.133                    20913694.438
        49.800          40.300
 12  6 14  2  8  0.0000000  0  7G30G31G25G18G12G22G14
 129607747.691 6 100993173.64242  24663550.086                    24663563.820
        36.100          16.300
 111917237.690 8  87208267.87446  21297126.836                    21297136.086
        50.800          39.700
 109281337.153 8  85154393.09747  20795538.797                    20795549.742
        51.000          43.600
 118827743.305 7  92592897.76245  22612138.148                    22612148.031
        45.300          30.800
 121117959.827 7  94377732.98345  23047993.391                    23048003.426
        46.600          33.600
 107779136.422 8  83983863.28047  20509709.305                    20509715.059
        51.700          43.600
 109880889.874 8  85621395.62446  20909606.961                    20909615.469
        49.800          40.400
 12  6 14  2  8 30.0000000  0  7G30G31G25G18G12G22G14
 129492707.273 6 100903531.94943  24641657.688                    24641672.836
        37.200          18.300
 111884411.289 8  87182688.87646  21290880.766                    21290889.520
        51.100          40.300
 109287567.425 8  85159247.87147  20796724.305                    20796735.738
        51.700          43.100
 118927446.916 7  92670588.74545  22631111.141                    22631121.391
        44.200          30.200
 121196885.113 7  94439233.16245  23063012.258                    23063021.715
        47.000          32.100
 107817915.273 8  84014080.52047  20517088.594                    20517094.582
        51.600          43.300
 109859618.408 8  85604820.46646  20905559.289                    20905567.672
        50.900          40.900
 12  6 14  2  9  0.0000000  0  7G30G31G25G18G12G22G14
 129377701.255 5 100813917.04043  24619773.914                    24619786.535
        35.400          19.000
 111851906.757 8  87157360.70346  21284694.945                    21284704.734
        50.800          40.800
 109294404.439 8  85164575.42047  20798025.461                    20798036.465
        51.200          43.400
 119027399.793 7  92748473.95245  22650131.789                    22650141.789
        44.200          30.000
 121276216.964 7  94501050.13645  23078108.773                    23078117.730
        47.400          31.800
 107857218.634 8  84044706.47847  20524567.953                    20524573.996
        52.400          43.000
 109838510.177 8  85588372.48246  20901542.578                    20901550.699
        49.800          40.500
 12  6 14  2  9 30.0000000  0  7G30G31G25G18G12G22G14
 129262731.171 6 100724330.18843  24597895.008                    24597908.609
        36.100          19.300
 111819722.481 8  87132282.06546  21278570.500                    21278579.547
        49.700          40.600
 109301846.929 8  85170374.76247  20799441.984                    20799452.957
        50.200          43.400
 119127598.913 7  92826551.06045  22669199.016                    22669209.129
        44.600          30.900
 121355952.026 7  94563181.29645  23093282.008                    23093291.379
        46.900          31.100
 107897044.180 8  84075739.34047  20532146.508                    20532152.340
        51.600          43.400
 109817565.817 8  85572052.18646  20897557.039                    20897565.594
        49.600          40.600
 12  6 14  2 10  0.0000000  0  7G30G31G25G18G12G22G14
 129147799.920 6 100634773.60743  24576024.586                    24576038.262
        39.400          20.900
 111787858.503 8  87107453.01946  21272507.117                    21272516.188
        50.700          40.500
 109309895.040 8  85176646.02347  20800973.352                    20800984.082
        50.500          43.200
 119228042.196 7  92904818.40945  22688312.836                    22688323.105
        45.200          30.500
 121436088.125 7  94625624.95645  23108531.555                    23108541.203
        47.800          31.400
 107937391.529 8  84107178.80047  20539824.219                    20539830.020
        50.000          42.400
 109796786.555 8  85555860.55146  20893602.617                    20893611.141
        50.300          40.500
 12  6 14  2 10 30.0000000  0  7G30G31G25G18G12G22G14
 129032910.544 6 100545249.56343  24554161.086                    24554174.965
        38.400          19.600
 111756314.658 8  87082873.42446  21266504.469                    21266513.453
        50.200          39.700
 109318548.953 8  85183389.32847  20802620.195                    20802631.379
        51.200          43.100
 119328727.764 7  92983274.51944  22707472.898                    22707483.094
        44.500          29.700
 121516623.251 7  94688379.55845  23123856.859                    23123866.293
        46.500          31.000
 107978260.114 8  84139024.42847  20547601.242                    20547607.324
        50.700          43.000
 109776174.189 8  85539798.98146  20889680.102                    20889689.094
        49.600          40.700
 12  6 14  2 11  0.0000000  0  7G30G31G25G18G12G22G14
 128918065.058 6 100455759.81943  24532306.391                    24532320.508
        38.600          19.900
 111725089.761 8  87058542.35746  21260562.539                    21260571.227
        50.000          39.700
 109327807.990 8  85190604.14747  20804382.234                    20804393.313
        50.800          43.300
 119429652.683 7  93061917.13844  22726678.445                    22726688.660
        44.500          28.700
 121597554.047 7  94751442.45445  23139256.859                    23139267.184
        46.100          30.600
 108019648.775 8  84171275.28947  20555477.219                    20555483.602
        49.000          43.100
 109755729.993 8  85523868.43346  20885789.500                    20885798.543
        48.000          40.600
 12  6 14  2 11 30.0000000  0  7G30G31G25G18G12G22G14
 128803264.553 6 100366305.06943  24510460.469                    24510474.359
        39.500          19.300
 111694181.635 8  87034458.12546  21254680.813                    21254690.297
        51.000          40.400
 109337670.348 8  85198289.08147  20806258.664                    20806269.977
        50.800          42.500
 119530813.029 7  93140743.23144  22745928.172                    22745938.148
        43.400          28.600
 121678876.906 7  94814810.86444  23154732.586                    23154742.676
        45.000          29.700
 108061554.829 8  84203929.32847  20563451.906                    20563458.043
        50.600          44.000
 109735454.079 8  85508069.02246  20881931.086                    20881939.977
        49.900          40.300
 12  6 14  2 12  0.0000000  0  7G30G31G25G18G12G22G14
 128688512.420 6 100276888.03243  24488623.547                    24488637.992
        39.700          19.600
 111663590.459 8  87010620.89546  21248859.438                    21248868.207
        50.400          39.900
 109348136.481 8  85206444.48247  20808250.336                    20808261.316
        49.800          42.600
 119632207.198 7  93219751.53144  22765223.383                    22765233.621
        43.000          27.200
 121760590.041 7  94878483.40144  23170281.719                    23170291.551
        43.900          29.300
 108103978.096 8  84236986.37847  20571524.953                    20571531.059
        48.900          43.800
 109715347.756 8  85492401.75446  20878105.633                    20878114.000
        49.100          41.100
 12  6 14  2 12 30.0000000  0  7G30G31G25G18G12G22G14
 128573813.847 6 100187512.77443  24466797.164                    24466811.734
        40.400          19.900
 111633318.157 8  86987032.11446  21243098.773                    21243107.875
        50.200          39.200
 109359208.690 8  85215072.16747  20810357.570                    20810368.652
        49.300          42.800
 119733835.498 7  93298942.27244  22784562.688                    22784572.973
        44.400          29.700
 121842693.663 7  94942460.19644  23185906.328                    23185915.516
        44.500          27.400
 108146920.305 8  84270447.80647  20579696.359                    20579702.555
        50.400          43.000
 109695415.207 8  85476869.88546  20874312.398                    20874320.660
        48.000          40.400
 12  6 14  2 13  0.0000000  0  7G30G31G25G18G12G22G14
 128459167.138 6 100098177.90143  24444980.367                    24444994.648
        39.900          19.900
 111603360.005 8  86963688.12546  21237397.930                    21237406.504
        50.800          39.400
 109370882.420 8  85224168.54647  20812578.930                    20812590.086
        50.600          43.100
 119835691.563 7  93378310.46744  22803945.984                    22803956.266
        44.000          29.300
 121925181.265 7  95006736.19744  23201603.125                    23201612.219
        44.400          27.300
 108190376.185 8  84304309.49347  20587965.695                    20587972.070
        51.000          42.700
 109675653.773 8  85461471.38046  20870551.836                    20870560.414
        49.300          41.300
 12  6 14  2 13 30.0000000  0  7G30G31G25G18G12G22G14
 128344576.592 7 100008886.78843  24423174.219                    24423189.137
        42.600          21.100
 111573717.239 8  86940589.90746  21231757.203                    21231765.699
        51.100          39.700
 109383158.865 8  85233734.58247  20814915.078                    20814926.457
        51.400          43.000
 119937774.695 7  93457855.63144  22823371.883                    22823381.547
        43.800          29.000
 122008051.551 7  95071310.39044  23217372.234                    23217382.766
        43.300          27.300
 108234346.289 8  84338571.87547  20596332.938                    20596339.359
        49.800          42.800
 109656066.637 8  85446208.68946  20866824.828                    20866833.344
        49.500          40.800
 12  6 14  2 14  0.0000000  0  7G30G31G25G18G12G22G14
 128230043.331 7  99919640.27643  24401379.742                    24401394.414
        42.800          22.200
 111544387.248 8  86917735.40546  21226176.133                    21226185.039
        50.800          39.900
 109396036.282 8  85243768.91147  20817365.383                    20817377.133
        50.100          42.900
 120040080.867 6  93537574.58944  22842839.633                    22842850.410
        41.300          27.400
 122091300.702 7  95136179.80444  23233215.055                    23233224.457
        42.800          26.200
 108278828.180 8  84373233.05247  20604797.820                    20604804.012
        51.400          43.200
 109636653.719 8  85431081.77046  20863130.375                    20863138.715
        48.700          40.500
 12  6 14  2 14 30.0000000  0  8G30G31G32G25G18G12G22G14
 128115570.305 6  99830440.72743  24379595.578                    24379610.281
        41.900          22.000
 111515369.872 8  86895124.49446  21220654.367                    21220662.668
        50.100          40.800
 131433701.35815                  25011029.055
        32.500
 109409514.479 8  85254271.39047  20819930.242                    20819941.371
        50.000          43.000
 120142608.219 7  93617465.85044  22862350.500                    22862361.148
        42.800          28.600
 122174926.918 7  95201343.04844  23249127.898                    23249137.809
        42.900          27.700
 108323820.969 8  84408292.31847  20613359.875                    20613365.816
        51.300          43.100
 109617416.713 8  85416091.90546  20859469.891                    20859478.219
        49.200          41.100
 12  6 14  2 15  0.0000000  0  8G30G31G32G25G18G12G22G14
 128001161.154 6  99741290.93543  24357824.438                    24357839.012
        41.100          20.900
 111486665.403 8  86872757.41946  21215191.461                    21215200.504
        50.200          40.400
 131340049.487 5                  24993207.477
        33.000
 109423594.153 8  85265242.54247  20822609.539                    20822620.578
        50.400          42.800
 120245355.630 6  93697528.58744  22881902.773                    22881913.164
        41.300          28.600
 122258928.182 7  95266798.54444  23265112.992                    23265122.371
        42.800          26.000
 108369324.775 8  84443749.79147  20622018.531                    20622024.152
        51.700          42.800
 109598358.051 8  85401241.00446  20855843.305                    20855851.219
        49.600          41.000
 12  6 14  2 15 30.0000000  0  8G30G31G32G25G18G12G22G14
 127886816.639 6  99652191.54243  24336064.516                    24336079.707
        41.600          21.500
 111458271.628 8  86850632.42346  21209788.391                    21209796.992
        49.700          39.700
 131246537.297 5                  24975411.453
        32.600
 109438272.989 8  85276680.60847  20825403.164                    20825413.793
        50.900          42.700
 120348318.674 7  93777759.35244  22901495.578                    22901507.004
        42.200          29.200
 122343300.350 7  95332543.04844  23281168.422                    23281178.070
        43.600          28.200
 108415336.527 8  84479603.07047  20630774.289                    20630780.527
        51.300          43.200
 109579477.444 8  85386528.86246  20852250.164                    20852258.199
        50.800          40.900
 12  6 14  2 16  0.0000000  0  8G30G31G32G25G18G12G22G14
 127772540.923 7  99563145.75743  24314318.297                    24314332.980
        43.100          22.900
 111430189.081 8  86828749.95046  21204444.281                    21204453.715
        49.600          39.300
 131153168.713 5                  24957643.633
        31.200
 109453551.898 8  85288586.24147  20828310.477                    20828321.551
        52.000          42.700
 120451496.233 7  93858157.28244  22921129.961                    22921141.074
        42.600          28.700
 122428042.470 7  95398575.78744  23297295.258                    23297304.629
        42.200          28.400
 108461856.828 8  84515852.59847  20639627.125                    20639633.207
        52.300          43.200
 109560777.688 8  85371957.64846  20848691.445                    20848699.934
        50.800          40.000
 12  6 14  2 16 30.0000000  0  8G30G31G32G25G18G12G22G14
 127658335.536 7  99474154.78043  24292586.023                    24292600.340
        43.000          21.700
 111402416.423 8  86807108.94546  21199159.406                    21199168.031
        49.400          40.100
 131059945.267 5                  24939903.273
        30.500
 109469429.399 8  85300958.30647  20831332.070                    20831343.070
        51.600          42.500
 120554885.013 7  93938719.77545  22940804.406                    22940815.879
        43.600          30.300
 122513150.966 7  95464894.07644  23313489.953                    23313499.582
        43.000          27.700
 108508883.191 8  84552496.47447  20648576.000                    20648582.410
        51.400          43.200
 109542259.217 8  85357527.68546  20845167.227                    20845175.816
        50.600          40.500
 12  6 14  2 17  0.0000000  0  8G30G31G32G25G18G12G22G14
 127544205.175 6  99385222.20043  24270868.492                    24270882.102
        41.400          22.300
 111374954.535 8  86785710.09846  21193933.586                    21193942.688
        49.800          40.100
                                  24922191.570
        27.600
 109485906.939 8  85313797.95947  20834467.391                    20834478.637
        51.300          42.600
 120658484.902 7  94019446.74344  22960519.109                    22960529.582
        42.500          28.500
 122598625.294 7  95531497.44744  23329755.086                    23329764.641
        43.800          27.500
 108556416.670 8  84589535.50947  20657621.180                    20657627.324
        51.400          43.000
 109523925.669 8  85343241.81246  20841679.031                    20841686.980
        51.900          40.200
 12  6 14  2 17 30.0000000  0  7G30G31G25G18G12G22G14
 127430149.267 6  99296347.67343  24249163.578                    24249178.301
        41.300          21.700
 111347799.990 8  86764550.72946  21188766.242                    21188775.469
        50.200          39.900
 109502980.910 8  85327102.35947  20837716.484                    20837727.785
        50.500          42.400
 120762290.324 7  94100333.88744  22980272.375                    22980283.734
        42.200          26.400
 122684460.023 7  95598381.62544  23346089.359                    23346099.668
        43.600          28.200
 108604453.052 8  84626966.41847  20666762.031                    20666768.305
        51.100          42.800
 109505775.262 8  85329098.65946  20838224.992                    20838233.227
        51.100          40.000
 12  6 14  2 18  0.0000000  0  7G30G31G25G18G12G22G14
 127316170.364 6  99207533.12043  24227474.328                    24227488.359
        41.100          23.500
 111320951.759 8  86743630.05946  21183656.984                    21183666.375
        50.100          40.400
 109520650.455 8  85340870.84647  20841078.852                    20841090.355
        51.000          42.500
 120866298.895 7  94181379.33044  23000065.102                    23000075.582
        44.100          28.200
 122770652.254 7  95665544.33244  23362490.547                    23362501.023
        43.700          27.500
 108652990.886 8  84664788.05547  20675998.805                    20676005.109
        52.300          42.200
 109487809.277 8  85315099.20246  20834806.094                    20834814.863
        50.900          40.300
 12  6 14  2 18 30.0000000  0  7G30G31G25G18G12G22G14
 127202271.891 6  99118781.29543  24205799.289                    24205814.164
        41.200          22.200
 111294410.082 8  86722948.24546  21178606.648                    21178615.355
        50.300          40.600
 109538915.923 8  85355103.67247  20844554.836                    20844565.969
        52.300          43.000
 120970508.820 7  94262581.61244  23019895.461                    23019906.625
        43.400          26.000
 122857200.441 7  95732984.45744  23378960.016                    23378970.207
        43.800          26.800
 108702029.809 8  84703000.16547  20685330.297                    20685336.938
        52.200          42.200
 109470030.093 8  85301245.29746  20831422.836                    20831431.168
        50.500          40.600
 12  6 14  2 19  0.0000000  0  7G30G31G25G18G12G22G14
 127088452.977 6  99030091.41843  24184140.031                    24184154.094
        41.300          21.700
 111268170.807 8  86702502.07546  21173613.641                    21173622.031
        49.900          40.500
 109557773.035 8  85369797.52147  20848143.055                    20848154.168
        52.500          42.700
 121074914.390 7  94343936.36944  23039763.211                    23039774.570
        42.100          26.400
 122944098.483 7  95800697.14744  23395497.195                    23395505.992
        42.300          25.800
 108751565.004 8  84741598.98747  20694757.070                    20694763.168
        52.500          42.700
 109452435.680 8  85287535.37246  20828074.703                    20828083.398
        51.400          40.100
 12  6 14  2 19 30.0000000  0  7G30G31G25G18G12G22G14
 126974720.650 6  98941469.00643  24162497.820                    24162511.387
        40.500          21.800
 111242237.458 8  86682294.28646  21168678.516                    21168687.504
        50.100          39.700
 109577225.506 8  85384955.29647  20851844.797                    20851855.973
        51.800          42.700
 121179517.426 7  94425444.99544  23059668.664                    23059679.688
        42.700          25.800
 123031348.094 7  95868683.83544  23412099.734                    23412109.430
        43.200          26.800
 108801599.771 8  84780587.07247  20704278.086                    20704284.762
        53.300          42.500
 109435031.777 8  85273973.90646  20824762.781                    20824771.313
        51.100          40.800
 12  6 14  2 20  0.0000000  0  7G30G31G25G18G12G22G14
 126861077.160 6  98852915.82043  24140872.695                    24140885.074
        40.500          21.300
 111216608.640 8  86662323.81046  21163801.313                    21163810.055
        50.700          40.900
 109597272.351 8  85400576.21147  20855659.547                    20855670.813
        52.900          43.200
 121284315.377 7  94507105.53344  23079610.992                    23079622.086
        43.300          26.000
 123118946.304 7  95936942.15044  23428769.359                    23428779.965
        42.000          26.500
 108852132.241 8  84819962.97847  20713893.977                    20713900.605
        52.700          42.800
 109417819.580 8  85260561.82146  20821487.266                    20821495.789
        51.200          40.600
 12  6 14  2 20 30.0000000  0  7G30G31G25G18G12G22G14
 126747522.996 6  98764432.20943  24119263.125                    24119275.973
        41.500          21.500
 111191281.929 8  86642588.72246  21158982.102                    21158990.887
        51.000          40.000
 109617910.720 8  85416658.05647  20859586.797                    20859598.113
        53.400          42.500
 121389303.804 7  94588914.47044  23099589.961                    23099601.520
        42.300          26.200
 123206888.641 7  96005468.60044  23445504.383                    23445514.734
        42.400          26.500
 108903159.176 8  84859724.18447  20723604.367                    20723610.859
        52.500          42.500
 109400798.505 8  85247298.66046  20818248.289                    20818256.820
        51.900          40.000
 12  6 14  2 21  0.0000000  0  7G30G31G25G18G12G22G14
 126634061.112 7  98676020.48943  24097672.000                    24097684.617
        42.000          21.800
 111166256.875 8  86623088.70646  21154219.547                    21154228.512
        51.700          40.500
 109639140.052 8  85433200.39147  20863626.523                    20863637.945
        52.600          42.700
 121494480.576 7  94670870.19144  23119604.586                    23119615.883
        42.800          25.600
 123295172.612 7  96074261.28044  23462304.727                    23462314.332
        42.300          26.700
 108954679.530 8  84899869.86947  20733408.188                    20733414.828
        53.700          42.200
 109383970.220 8  85234185.73946  20815046.164                    20815054.402
        50.900          40.600
 12  6 14  2 21 30.0000000  0  7G30G31G25G18G12G22G14
 126520694.916 7  98587683.38243  24076099.500                    24076111.836
        42.600          23.000
 111141533.415 8  86603823.70446  21149514.711                    21149523.570
        51.400          40.300
 109660960.454 8  85450203.30647  20867778.695                    20867790.008
        52.300          42.400
 121599843.949 7  94752971.31144  23139655.211                    23139666.711
        43.700          26.700
 123383796.646 6  96143318.92544  23479169.250                    23479179.258
        41.800          27.400
 109006692.623 8  84940399.51147  20743306.484                    20743312.672
        52.600          42.500
 109367337.158 8  85221224.92246  20811881.109                    20811888.883
        51.000          40.800
 12  6 14  2 22  0.0000000  0  7G30G31G25G18G12G22G14
 126407425.437 7  98499421.61544  24054544.867                    24054557.418
        43.300          24.500
 111117109.147 8  86584791.82946  21144867.047                    21144875.723
        51.200          40.500
 109683369.578 8  85467664.95847  20872043.164                    20872054.531
        52.300          42.700
 121705389.889 7  94835214.69244  23159740.219                    23159751.680
        42.900          25.900
 123472756.658 6  96212638.36544  23496098.219                    23496108.039
        40.800          26.400
 109059195.775 8  84981311.00847  20753297.383                    20753303.793
        53.900          42.200
 109350899.156 8  85208416.10946  20808753.031                    20808761.008
        51.200          40.900
 12  6 14  2 22 30.0000000  0  8G30G31G32G25G18G12G22G14
 126294253.409 7  98411235.77243  24033008.258                    24033021.254
        42.500          23.800
 111092981.507 8  86565991.11846  21140275.773                    21140284.750
        51.500          40.400
 129953480.17815                  24729339.719
        30.800
 109706364.607 8  85485583.15446  20876419.016                    20876430.191
        52.700          41.700
 121811114.480 7  94917597.23744  23179858.508                    23179870.074
        42.300          26.800
 123562048.011 6  96282215.99244  23513089.547                    23513099.445
        41.700          26.400
 109112185.411 8  85022601.58547  20763380.930                    20763387.113
        53.900          42.600
 109334655.787 8  85195758.94746  20805662.250                    20805669.977
        51.100          40.900
 12  6 14  2 23  0.0000000  0  7G30G31G25G18G12G22G14
 126181184.199 7  98323130.02644  24011492.219                    24011505.434
        44.500          24.100
 111069152.219 8  86547422.86146  21135741.023                    21135750.480
        50.600          40.400
 109729947.477 8  85503959.40847  20880906.914                    20880918.328
        52.900          42.100
 121917017.723 6  95000118.97544  23200011.836                    23200023.219
        41.700          25.400
 123651670.742 6  96352051.84144  23530143.313                    23530153.688
        40.900          24.200
 109165662.932 8  85064272.34047  20773557.336                    20773563.828
        53.100          42.600
 109318611.146 8  85183256.62846  20802608.836                    20802616.906
        51.700          40.900
 12  6 14  2 23 30.0000000  0  8G30G31G32G25G18G12G22G14
 126068220.486 7  98235106.50843  23989995.797                    23990008.949
        44.100          23.200
 111045620.872 8  86529086.76146  21131263.125                    21131271.680
        51.000          40.300
 129771394.04115                  24694689.266
        31.600
 109754117.291 8  85522793.01147  20885506.258                    20885517.566
        52.000          42.000
 122023097.324 6  95082778.17044  23220197.867                    23220209.785
        40.900          24.900
 123741622.371 6  96422143.93744  23547260.625                    23547270.547
        40.500          24.100
 109219627.089 8  85106322.27147  20783826.383                    20783833.219
        52.200          42.400
 109302766.828 8  85170910.41046  20799593.602                    20799601.809
        51.300          40.500
 12  6 14  2 24  0.0000000  0  8G30G31G32G25G18G12G22G14
 125955362.917 7  98147165.70943  23968519.281                    23968532.953
        43.600          23.600
 111022384.534 8  86510980.55146  21126841.875                    21126850.605
        51.200          40.300
 129680620.013 5                  24677417.273
        33.600
 109778871.142 8  85542081.72047  20890216.875                    20890228.051
        52.300          42.100
 122129348.866 7  95165571.33544  23240417.828                    23240428.961
        42.500          26.100
 123831898.334 6  96492488.79244  23564439.789                    23564449.559
        41.300          25.100
 109274074.351 8  85148748.66647  20794187.711                    20794194.074
        53.300          42.300
 109287122.242 8  85158719.82046  20796616.438                    20796625.125
        51.000          40.800
 12  6 14  2 24 30.0000000  0  8G30G31G32G25G18G12G22G14
 125842615.032 7  98059310.38844  23947064.406                    23947077.766
        43.800          24.900
 110999443.387 8  86493104.38346  21122476.055                    21122485.012
        51.600          40.300
 129590027.693 5                  24660175.867
        31.800
 109804209.021 8  85561825.51247  20895038.609                    20895049.426
        51.500          42.000
 122235770.377 7  95248496.95743  23260669.305                    23260680.320
        42.000          23.400
 123922496.913 7  96563085.03644  23581681.281                    23581690.656
        42.400          24.600
 109329004.422 8  85191551.27347  20804640.375                    20804646.914
        52.900          42.100
 109271680.027 8  85146686.93146  20793677.719                    20793686.238
        51.700          40.400
 12  6 14  2 25  0.0000000  0  8G30G31G32G25G18G12G22G14
 125729979.378 7  97971542.52543  23925630.133                    23925643.594
        43.700          22.900
 110976796.540 8  86475457.54546  21118166.492                    21118174.273
        51.700          40.200
 129499619.872 5                  24642972.141
        31.600
 109830130.057 8  85582023.70247  20899971.219                    20899982.160
        52.700          42.300
 122342359.910 7  95331553.47744  23280952.875                    23280963.961
        42.700          26.700
 124013415.576 7  96633930.70144  23598981.469                    23598991.191
        42.100          26.000
 109384415.215 8  85234728.45347  20815184.992                    20815191.605
        52.000          42.000
 109256441.781 8  85134812.96746  20790778.586                    20790786.359
        52.400          39.900
 12  6 14  2 25 30.0000000  0  8G30G31G32G25G18G12G22G14
 125617457.210 7  97883863.06544  23904218.297                    23904230.852
        43.900          25.000
 110954441.779 8  86458038.29546  21113912.492                    21113921.504
        51.900          40.900
 129409397.479 5                  24625800.828
        31.000
 109856631.764 8  85602674.35746  20905014.258                    20905024.906
        51.700          41.700
 122449113.917 6  95414738.20244  23301267.375                    23301279.352
        41.800          24.100
 124104649.918 7  96705022.21244  23616342.977                    23616353.098
        42.200          25.500
 109440304.193 8  85278278.26446  20825820.211                    20825826.363
        51.300          41.400
 109241407.532 8  85123097.96546  20787917.102                    20787925.199
        51.400          40.500
 12  6 14  2 26  0.0000000  0  8G30G31G32G25G18G12G22G14
 125505051.240 7  97796274.16244  23882828.289                    23882840.465
        42.800          25.200
 110932378.438 8  86440846.13246  21109713.625                    21109722.578
        50.700          40.200
 129319363.03615                  24608668.273
        30.800
 109883713.271 8  85623776.82146  20910167.734                    20910178.781
        51.400          41.900
 122556029.788 7  95498048.99644  23321613.445                    23321625.129
        42.000          26.200
 124196198.466 6  96776358.79944  23633763.547                    23633774.449
        39.900          24.700
 109496670.073 8  85322199.68646  20836546.141                    20836552.512
        52.500          41.600
 109226578.679 8  85111543.01746  20785095.281                    20785103.953
        51.000          40.800
 12  6 14  2 26 30.0000000  0  8G30G31G32G25G18G12G22G14
 125392765.152 7  97708778.70844  23861460.375                    23861473.000
        43.100          25.000
 110910606.430 8  86423880.98446  21105570.586                    21105579.520
        50.800          39.900
 129229520.176 5                  24591572.758
        32.600
 109911374.627 8  85645331.10647  20915431.281                    20915442.859
        51.300          42.700
 122663106.023 6  95581484.76844  23341988.227                    23342001.559
        40.900          24.200
 124288058.719 6  96847938.10144  23651244.227                    23651254.965
        39.400          24.100
 109553512.207 8  85366492.21046  20847362.891                    20847369.059
        50.800          41.800
 109211957.912 8  85100150.20346  20782313.211                    20782321.820
        51.500          39.800
 12  6 14  2 27  0.0000000  0  8G30G31G32G25G18G12G22G14
 125280600.980 7  97621378.21043  23840116.031                    23840128.832
        42.000          23.300
 110889124.749 8  86407142.03646  21101483.234                    21101491.219
        51.100          40.600
 129139870.716 5                  24574513.094
        34.300
 109939614.150 8  85667335.92247  20920805.164                    20920816.684
        50.400          42.500
 122770339.830 6  95665043.27243  23362395.320                    23362406.938
        40.500          22.600
 124380227.785 6  96919758.03343  23668784.875                    23668793.457
        38.900          22.800
 109610828.402 8  85411154.13447  20858269.820                    20858276.488
        50.200          42.100
 109197546.264 8  85088920.33646  20779570.914                    20779578.996
        51.200          39.900
 12  6 14  2 27 30.0000000  0  8G30G31G32G25G18G12G22G14
 125168561.632 7  97534074.99743  23818795.594                    23818808.117
        42.200          23.900
 110867932.911 8  86390628.97146  21097449.898                    21097459.000
        51.500          40.700
 129050417.539 5 100558868.46752  24557491.008                    24557503.340
        34.600          15.600
 109968431.150 8  85689790.72547  20926288.766                    20926300.051
        50.100          42.100
 122877729.213 7  95748723.10043  23382831.031                    23382842.801
        43.200          23.000
 124472703.151 6  96991816.79843  23686380.438                    23686390.820
        38.300          22.000
 109668617.684 8  85456184.70046  20869266.484                    20869273.371
        50.200          41.900
 109183345.384 8  85077854.70546  20776868.242                    20776877.020
        51.300          40.700
 12  6 14  2 28  0.0000000  0  8G30G31G32G25G18G12G22G14
 125056648.282 7  97446869.98344  23797498.430                    23797511.832
        42.900          24.700
 110847028.597 8  86374339.92646  21093471.805                    21093481.109
        51.300          40.700
 128961161.639 5 100489318.55742  24540504.086                    24540518.930
        34.400          16.900
 109997823.103 8  85712693.53646  20931881.609                    20931892.938
        49.600          41.300
 122985269.965 6  95832520.82643  23403295.664                    23403307.512
        40.000          22.300
 124565481.075 6  97064111.23343  23704035.633                    23704045.625
        37.200          21.800
 109726876.679 8  85501581.27347  20880353.266                    20880359.535
        51.500          42.200
 109169355.525 8  85066953.51846  20774206.438                    20774214.641
        51.800          40.500
 12  6 14  2 28 30.0000000  0  8G30G31G32G25G18G12G22G14
 124944866.079 7  97359767.13644  23776226.891                    23776240.027
        43.000          26.800
 110826413.182 8  86358275.97646  21089549.016                    21089557.875
        51.100          40.500
 128872107.884 5 100419926.18042  24523559.039                    24523572.082
        35.800          17.800
 110027791.197 8  85736045.28546  20937584.586                    20937596.039
        51.000          41.600
 123092962.245 6  95916436.56143  23423789.141                    23423800.891
        41.300          22.800
 124658561.279 6  97136641.24243  23721748.344                    23721758.426
        38.400          23.500
 109785606.417 8  85547344.64146  20891529.430                    20891535.656
        52.500          41.300
 109155580.677 8  85056219.87046  20771585.156                    20771593.465
        52.200          40.100
 12  6 14  2 29  0.0000000  0  8G30G31G32G25G18G12G22G14
 124833214.395 7  97272765.95244  23754980.711                    23754993.793
        43.400          26.300
 110806082.707 8  86342434.07446  21085680.352                    21085689.078
        51.100          41.000
 128783255.740 6 100350690.83043  24506651.742                    24506664.348
        36.500          18.300
 110058331.204 8  85759842.68447  20943396.305                    20943408.176
        50.300          42.300
 123200800.247 6  96000465.88443  23444309.594                    23444321.219
        41.300          22.500
 124751937.847 6  97209402.11543  23739517.719                    23739527.945
        38.400          21.500
 109844801.960 8  85593470.98746  20902793.711                    20902800.332
        51.400          41.600
 109142019.022 8  85045652.34146  20769004.578                    20769012.840
        51.700          41.200
 12  6 14  2 29 30.0000000  0  8G30G31G32G25G18G12G22G14
 124721696.350 7  97185868.92544  23733758.930                    23733771.680
        42.600          25.300
 110786036.935 8  86326814.00146  21081865.727                    21081874.426
        51.200          40.700
 128694607.967 6 100281614.78043  24489781.258                    24489795.547
        36.200          19.300
 110089442.441 8  85784085.18947  20949316.547                    20949328.066
        50.900          42.200
 123308782.143 6  96084607.36243  23464858.195                    23464870.219
        41.100          20.900
 124845608.870 6  97282392.50644  23757343.117                    23757353.668
        39.300          24.200
 109904462.224 8  85639959.46146  20914146.555                    20914153.016
        51.500          41.300
 109128672.777 8  85035252.67546  20766464.984                    20766472.984
        52.100          40.500
 12  6 14  2 30  0.0000000  0  8G30G31G32G25G18G12G22G14
 124610316.330 7  97099079.44144  23712563.477                    23712577.227
        43.100          25.100
 110766276.881 8  86311416.57146  21078105.961                    21078114.492
        50.800          40.900
 128606169.117 6 100212701.50743  24472952.336                    24472965.223
        38.000          19.000
 110121125.482 8  85808773.27146  20955345.555                    20955357.125
        49.500          41.600
 123416907.461 6  96168860.59643  23485434.531                    23485445.543
        40.200          20.100
 124939573.240 6  97355611.45043  23775223.180                    23775234.441
        38.900          22.500
 109964587.259 8  85686810.06846  20925587.992                    20925594.469
        51.300          41.600
 109115545.189 8  85025023.38646  20763967.023                    20763974.777
        51.400          40.900
 12  6 14  2 30 30.0000000  0  8G30G31G32G25G18G12G22G14
 124499073.689 7  97012396.94644  23691395.406                    23691408.281
        42.700          25.500
 110746798.180 8  86296238.37446  21074398.664                    21074407.840
        51.100          41.300
 128517938.205 6 100143950.23543  24456162.438                    24456174.715
        38.400          19.600
 110153375.851 8  85833903.42646  20961482.664                    20961494.176
        49.700          41.400
 123525170.386 6  96253221.00043  23506036.375                    23506047.898
        41.800          22.500
 125033825.149 6  97429054.45844  23793160.359                    23793169.984
        38.700          24.000
 110025172.413 8  85734019.22446  20937117.172                    20937123.438
        51.900          41.700
 109102634.482 8  85014963.08146  20761509.500                    20761518.090
        51.000          40.500
 12  6 14  2 31  0.0000000  0  8G30G31G32G25G18G12G22G14
 124387971.892 7  96925824.23944  23670253.648                    23670266.563
        42.400          27.400
 110727600.747 8  86281279.36446  21070745.594                    21070754.332
        51.500          41.100
 128429918.585 6 100075363.58143  24439412.977                    24439425.379
        40.600          20.600
 110186193.069 8  85859475.29446  20967727.570                    20967739.172
        49.400          41.800
 123633569.150 6  96337687.23544  23526663.375                    23526675.895
        41.200          24.300
 125128362.603 6  97502719.95443  23811149.313                    23811160.242
        39.600          22.000
 110086216.422 8  85781585.91746  20948733.641                    20948740.063
        50.200          41.400
 109089942.974 8  85005073.58846  20759094.453                    20759102.789
        51.700          40.600
 12  6 14  2 31 30.0000000  0  8G30G31G32G25G18G12G22G14
 124277015.523 6  96839364.83744  23649139.320                    23649152.098
        41.100          25.400
 110708686.029 8  86266540.64246  21067146.195                    21067154.922
        50.800          41.700
 128342114.883 6 100006945.21443  24422704.195                    24422716.859
        39.000          21.800
 110219578.016 8  85885489.51646  20974080.711                    20974092.203
        50.200          41.900
 123742103.455 7  96422259.11344  23547318.078                    23547329.637
        43.100          24.700
 125223185.088 6  97576607.53043  23829194.320                    23829203.887
        40.400          22.800
 110147719.886 8  85829510.62346  20960437.328                    20960443.691
        50.300          40.900
 109077474.374 8  84995357.78746  20756721.969                    20756730.285
        51.700          40.700
 12  6 14  2 32  0.0000000  0  8G30G31G32G25G18G12G22G14
 124166202.001 7  96753016.75944  23628051.383                    23628063.887
        43.400          26.800
 110690047.658 8  86252017.26346  21063599.578                    21063608.273
        50.900          40.900
 128254524.280 6  99938692.90043  24406036.469                    24406049.035
        39.000          21.800
 110253524.153 7  85911941.03347  20980540.203                    20980551.930
        47.800          42.200
 123850765.598 7  96506930.60344  23567995.125                    23568007.680
        43.900          25.000
 125318285.097 6  97650711.38443  23847291.164                    23847300.422
        39.900          21.700
 110209675.993 8  85877788.05346  20972227.148                    20972233.078
        48.700          41.200
 109065224.595 8  84985812.50046  20754390.773                    20754398.891
        51.700          40.900
 12  6 14  2 32 30.0000000  0  9G30G31G32G25G18G29G12G22G14
 124055537.341 6  96666784.64844  23606992.430                    23607005.688
        40.500          25.800
 110671688.225 8  86237711.21546  21060105.930                    21060114.406
        51.100          40.900
 128167152.562 6  99870611.12843  24389410.023                    24389422.219
        40.200          22.000
 110288033.474 8  85938831.40647  20987107.250                    20987118.613
        50.900          42.200
 123959556.823 6  96591702.66543  23588697.648                    23588710.367
        41.100          22.300
 128668085.95615                  24484761.406
        31.600
 125413662.926 6  97725031.69643  23865440.313                    23865449.813
        41.300          20.900
 110272085.664 8  85926418.91146  20984103.578                    20984109.520
        51.200          41.700
 109053198.948 8  84976441.86646  20752102.563                    20752110.332
        51.800          40.900
 12  6 14  2 33  0.0000000  0  9G30G31G32G25G18G29G12G22G14
 123945025.127 6  96580671.31144  23585962.758                    23585976.035
        41.800          27.900
 110653608.008 8  86223622.75046  21056665.617                    21056673.910
        51.200          40.800
 128080003.375 6  99802702.75543  24372826.195                    24372837.813
        39.900          22.600
 110323105.676 8  85966160.37846  20993781.359                    20993792.445
        49.600          41.700
 124068475.378 6  96676573.94343  23609424.414                    23609436.723
        40.100          19.300
 128605165.822 5                  24472787.914
        32.600
 125509317.195 6  97799567.43743  23883642.953                    23883652.695
        41.100          21.700
 110334948.648 8  85975402.99146  20996065.680                    20996072.348
        50.800          41.700
 109041400.079 8  84967247.93346  20749857.563                    20749865.609
        52.200          41.300
 12  6 14  2 33 30.0000000  0  9G30G31G32G25G18G29G12G22G14
 123834665.229 6  96494676.68244  23564962.125                    23564975.375
        41.500          26.300
 110635803.069 8  86209748.78646  21053277.219                    21053286.105
        51.800          41.400
 127993076.374 6  99734967.55143  24356283.789                    24356296.156
        39.200          22.200
 110358736.755 8  85993924.84246  21000561.594                    21000572.777
        49.900          41.400
 124177516.276 6  96761540.54842  23630174.414                    23630187.035
        37.800          16.300
 128542343.709 6                  24460834.664
        36.300
 125605242.431 6  97874314.31143  23901897.414                    23901907.012
        41.800          20.900
 110398260.447 8  86024736.80646  21008113.508                    21008120.637
        50.600          41.300
 109029826.614 8  84958229.64646  20747655.047                    20747663.379
        52.900          41.400
 12  6 14  2 34  0.0000000  0  9G30G31G32G25G18G29G12G22G14
 123724461.311 6  96408803.58642  23543991.195                    23544003.508
        37.200          17.800
 110618273.828 7  86196089.65545  21049941.516                    21049950.461
        46.500          33.100
 127906375.283 5  99667408.33142  24339785.922                    24339797.801
        34.600          16.300
 110394926.416 7  86022124.57245  21007447.859                    21007459.715
        45.400          33.000
 124286678.08415                  23650947.539
        30.300
 128479623.279 5                  24448899.203
        30.100
 125701437.108 5  97949271.09242  23920201.813                    23920212.523
        34.800          14.800
 110462020.397 7  86074419.81145  21020247.242                    21020253.551
        45.700          33.000
 109018481.254 7  84949389.09145  20745496.133                    20745504.328
        45.100          32.300
 12  6 14  2 34 30.0000000  0  9G30G31G32G25G18G29G12G22G14
 123614415.443 6  96323053.64242  23523049.898                    23523062.500
        37.100          17.400
 110601018.634 7  86182644.04845  21046657.953                    21046666.770
        46.600          32.100
 127819901.846 5  99600026.56442  24323330.945                    24323342.609
        35.000          14.800
 110431672.626 7  86050757.97245  21014440.727                    21014452.078
        45.800          33.300
 124395957.56314                  23671743.711
        29.900
 128417007.35114                  24436983.125
        27.600
 125797898.160 6                  23938558.742
        36.600
 110526225.835 7  86124449.95445  21032465.016                    21032471.516
        45.800          33.000
 109007364.371 7  84940726.57545  20743380.688                    20743388.988
        45.600          33.100
 12  6 14  2 35  0.0000000  0  8G30G31G32G25G18G12G22G14
 123504528.898 6  96237427.87243  23502138.930                    23502151.449
        37.900          18.600
 110584035.099 7  86169410.12545  21043425.578                    21043434.621
        46.600          31.900
 127733657.203 5  99532823.07742  24306917.438                    24306930.836
        34.700          16.900
 110468972.581 7  86079822.86045  21021538.664                    21021550.508
        45.300          33.100
                                  23692562.203
        28.000
 125894621.481 5                  23956964.672
        34.800
 110590873.701 7  86174824.85345  21044766.852                    21044773.613
        46.200          32.300
 108996476.874 7  84932242.81645  20741308.570                    20741317.586
        45.300          31.900
 12  6 14  2 35 30.0000000  0  7G30G31G32G25G12G22G14
 123394808.806 5  96151931.77842  23481260.328                    23481273.117
        35.800          17.400
 110567327.364 7  86156391.11245  21040246.328                    21040255.473
        44.900          31.500
 127647648.382 5  99465803.27742  24290550.719                    24290564.871
        35.000          16.300
 110506829.527 7  86109321.76945  21028742.789                    21028753.957
        45.800          32.500
 125991608.941 5                  23975420.180
        34.900
 110655966.606 7  86225546.52745  21057154.039                    21057160.574
        45.300          32.300
 108985824.935 7  84923942.59145  20739281.563                    20739290.305
        44.400          32.200
 12  6 14  2 36  0.0000000  0  7G30G31G32G25G12G22G14
 123285254.790 6  96066565.10842  23460412.836                    23460425.547
        37.100          17.800
 110550891.351 7  86143583.82545  21037119.195                    21037127.848
        45.600          31.500
 127561875.070 5  99398967.04942  24274228.813                    24274241.707
        34.700          15.600
 110545238.904 7  86139251.14445  21036052.219                    21036063.414
        45.900          32.100
 126088854.984 5                  23993925.453
        35.400
 110721500.033 7  86276611.47545  21069624.336                    21069631.539
        44.900          31.900
 108975406.929 7  84915824.66945  20737299.180                    20737307.992
        44.900          31.700
 12  6 14  2 36 30.0000000  0  7G30G31G32G25G12G22G14
 123175868.326 6  95981329.04042  23439597.039                    23439609.645
        37.800          17.800
 110534724.827 7  86130986.54845  21034042.883                    21034051.539
        46.700          31.800
 127476338.552 6  99332315.29142  24257951.156                    24257963.477
        37.100          14.800
 110584198.239 7  86169609.04845  21043465.289                    21043476.688
        45.600          31.100
 126186355.596 6                  24012479.734
        36.200
 110787470.713 7  86328017.12945  21082178.633                    21082185.367
        45.700          31.900
 108965223.269 7  84907889.34645  20735361.320                    20735369.313
        45.700          31.800
 12  6 14  2 37  0.0000000  0  7G30G31G32G25G12G22G14
 123066651.703 6  95896225.21843  23418814.109                    23418826.180
        39.500          18.600
 110518826.837 7  86118598.50745  21031017.055                    21031025.738
        47.000          31.800
 127391040.939 6  99265849.72242  24241720.836                    24241732.711
        36.500          14.800
 110623705.683 7  86200394.05945  21050983.875                    21050994.801
        46.300          31.800
 126284108.157 5  98403298.10252  24031081.594                    24031092.125
        35.700          13.900
 110853876.469 7  86379761.81645  21094815.227                    21094821.543
        46.800          33.400
 108955275.410 7  84900137.75645  20733468.492                    20733476.695
        46.700          31.900
 12  6 14  2 37 30.0000000  0  8G30G31G32G25G29G12G22G14
 122957607.048 6  95811255.49643  23398063.305                    23398075.414
        39.600          18.600
 110503195.654 7  86106418.36645  21028042.750                    21028051.438
        47.200          33.100
 127305984.210 6  99199571.84542  24225533.711                    24225546.863
        36.600          14.800
 110663759.181 7  86231604.57045  21058605.656                    21058617.094
        46.800          31.300
 128043794.45714                  24365941.398
        29.100
 126382109.423 5  98479662.62142  24049730.141                    24049741.973
        35.000          12.600
 110920715.029 7  86431843.73145  21107534.125                    21107540.738
        46.800          32.400
 108945563.722 7  84892570.21045  20731620.063                    20731629.094
        45.900          32.100
 12  6 14  2 38  0.0000000  0  8G30G31G32G25G29G12G22G14
 122848737.723 6  95726422.39943  23377345.789                    23377358.070
        37.700          19.000
 110487831.309 7  86094446.15845  21025119.344                    21025128.012
        45.300          32.100
 127221171.821 5  99133484.35842  24209394.609                    24209407.902
        35.700          15.600
 110704358.019 7  86263239.98945  21066330.977                    21066342.254
        44.200          31.200
                                  24354180.102
        27.300
 126480357.482 5  98556219.51842  24068425.828                    24068438.598
        31.300          15.600
 110987985.280 7  86484262.03345  21120335.758                    21120342.008
        44.700          30.900
 108936091.350 7  84885189.13945  20729817.742                    20729826.441
        44.200          31.100
 12  6 14  2 38 30.0000000  0  8G30G31G32G25G29G12G22G14
 122740046.892 6  95641728.34343  23356663.078                    23356674.355
        39.500          18.300
 110472733.214 7  86082681.41345  21022245.883                    21022254.949
        46.000          31.800
 127136606.554 5  99067589.45142  24193302.055                    24193315.273
        35.100          16.300
 110745501.214 7  86295299.59245  21074160.570                    21074171.660
        44.600          30.800
 127920323.43014                  24342445.633
        29.400
 126578850.462 5                  24087169.719
        32.500
 111055685.565 7  86537015.41745  21133218.602                    21133224.582
        45.300          31.700
 108926860.089 7  84877995.94145  20728061.352                    20728069.570
        45.000          31.400
 12  6 14  2 39  0.0000000  0  8G30G31G32G25G29G12G22G14
 122631531.480 6  95557171.00043  23336014.188                    23336024.777
        38.700          19.900
 110457894.906 7  86071119.11945  21019421.898                    21019431.066
        44.600          32.300
 127052285.509 5  99001884.83542  24177256.656                    24177269.563
        34.100          15.600
 110787181.551 7  86327777.76745  21082092.688                    21082103.621
        43.400          31.500
 127858778.88214                  24330732.516
        28.000
 126677579.968 5                  24105955.789
        32.000
 111123808.388 7  86590098.06245  21146181.875                    21146187.859
        44.700          31.400
 108917865.481 7  84870987.16745  20726348.883                    20726358.039
        44.100          32.000
 12  6 14  2 39 30.0000000  0  7G30G31G32G25G12G22G14
 122523200.020 6  95472757.01543  23315398.055                    23315410.172
        39.700          19.600
 110443321.688 7  86059763.36445  21016648.797                    21016657.738
        46.900          32.800
 126968216.974 5  98936376.95242  24161258.766                    24161272.305
        35.000          14.800
 110829403.342 7  86360677.83945  21090126.656                    21090138.102
        45.900          31.900
 126776549.175 5                  24124789.531
        34.800
 111192357.926 7  86643513.22045  21159226.453                    21159232.773
        46.700          31.600
 108909115.430 7  84864168.93545  20724684.609                    20724692.551
        45.600          32.700
 12  6 14  2 40  0.0000000  0  8G30G31G32G25G29G12G22G14
 122415057.419 7  95388490.19544  23294818.641                    23294830.992
        42.700          27.500
 110429014.719 8  86048615.08446  21013926.445                    21013934.934
        50.700          41.300
 126884405.796 6  98871069.70443  24145309.219                    24145322.258
        39.400          21.500
 110872167.344 8  86394000.41546  21098264.367                    21098276.047
        49.200          40.900
 127736182.47315                  24307387.711
        30.700
 126875758.299 6  98864317.83653  24143668.109                    24143678.031
        39.600          20.100
 111261334.598 8  86697261.19946  21172351.914                    21172358.684
        52.000          41.100
 108900613.508 8  84857544.06446  20723066.531                    20723075.199
        52.300          41.200
 12  6 14  2 40 30.0000000  0  8G30G31G32G25G29G12G22G14
 122307102.037 7  95304369.25044  23274275.719                    23274287.773
        43.600          28.700
 110414968.851 8  86037670.27746  21011253.422                    21011262.289
        50.300          41.900
 126800850.214 6  98805961.55843  24129409.523                    24129422.145
        40.200          22.000
 110915467.694 8  86427740.92546  21106504.164                    21106515.645
        50.000          41.600
 127675054.84515                  24295756.359
        34.300
 126975199.992 6  98941804.82043  24162592.305                    24162601.871
        37.700          18.300
 111330732.000 8  86751337.01846  21185557.961                    21185564.813
        52.100          40.500
 108892357.651 8  84851110.94146  20721495.258                    20721503.840
        51.500          41.700
 12  6 14  2 41  0.0000000  0  8G30G31G32G25G29G12G22G14
 122199335.495 7  95220395.45844  23253767.641                    23253780.465
        43.200          28.400
 110401182.107 8  86026927.36146  21008630.289                    21008638.902
        49.300          41.500
 126717551.663 6  98741053.67843  24113559.070                    24113570.664
        39.900          21.800
 110959301.750 8  86461897.32546  21114845.578                    21114856.727
        49.000          41.100
 127614069.290 5  99439588.26052  24284150.852                    24284163.551
        33.400          16.300
 127074870.600 6  99019470.18643  24181558.297                    24181569.504
        38.600          19.900
 111400547.090 8  86805738.29546  21198843.609                    21198850.652
        51.900          40.900
 108884348.237 8  84844869.83646  20719971.609                    20719979.898
        51.900          41.500
 12  6 14  2 41 30.0000000  0  8G30G31G32G25G29G12G22G14
 122091761.870 7  95136571.97144  23233297.180                    23233309.016
        43.200          27.800
 110387655.217 8  86016386.92446  21006055.813                    21006064.895
        50.100          41.100
 126634514.151 6  98676349.25543  24097756.773                    24097768.879
        40.900          22.800
 111003669.385 8  86496469.47646  21123288.453                    21123300.141
        48.500          41.000
 127553230.766 5  99392181.76542  24272572.758                    24272586.898
        30.700          15.600
 127174768.777 6  99097312.85043  24200568.266                    24200579.082
        37.100          19.300
 111470779.440 8  86860464.71646  21212207.891                    21212215.332
        51.100          41.100
 108876588.223 8  84838823.07446  20718494.336                    20718502.871
        51.400          41.200
 12  6 14  2 42  0.0000000  0  8G30G31G32G25G29G12G22G14
 121984383.441 7  95052900.62244  23212863.086                    23212875.758
        42.400          27.400
 110374386.840 8  86006047.92246  21003530.945                    21003539.539
        50.700          41.700
 126551740.044 7  98611850.06543  24082005.016                    24082017.637
        42.700          21.700
 111048568.620 8  86531455.86146  21131832.672                    21131844.191
        49.000          40.600
 127492541.975 5  99344891.88342  24261025.914                    24261038.691
        34.900          15.600
 127274892.565 6  99175331.30842  24219620.531                    24219632.039
        37.500          17.400
 111541426.789 8  86915514.51646  21225651.852                    21225659.250
        51.400          40.500
 108869079.020 8  84832971.73446  20717065.906                    20717073.781
        52.300          41.400
 12  6 14  2 42 30.0000000  0  8G30G31G32G25G29G12G22G14
 121877204.445 6  94969384.65644  23192467.461                    23192480.309
        41.300          27.100
 110361377.645 8  85995910.89847  21001055.938                    21001064.688
        50.700          42.000
 126469233.255 6  98547559.13143  24066304.094                    24066316.648
        41.300          23.000
 111093999.409 8  86566856.45346  21140477.508                    21140489.051
        50.600          40.000
 127432007.68915  99297722.36852  24249506.273                    24249519.211
        33.700          15.600
 127375240.383 6  99253524.37243  24238717.258                    24238728.500
        39.500          19.600
 111612488.492 8  86970887.18646  21239174.805                    21239181.055
        51.500          40.000
 108861823.559 8  84827318.13446  20715685.055                    20715693.629
        52.100          41.300
 12  6 14  2 43  0.0000000  0  8G30G31G32G25G29G12G22G14
 121770222.240 7  94886021.99244  23172110.156                    23172121.727
        42.100          27.100
 110348621.520 8  85985971.05346  20998628.320                    20998636.641
        50.200          41.300
 126386991.161 7  98483474.46543  24050654.547                    24050666.695
        42.000          22.600
 111139954.793 8  86602665.84046  21149223.141                    21149233.852
        50.300          40.200
 127371625.73215  99250671.52652  24238012.602                    24238029.418
        30.500          14.800
 127475804.767 6  99331886.20443  24257854.313                    24257864.480
        38.800          20.100
 111683957.618 8  87026577.33946  21252774.852                    21252781.309
        52.300          40.600
 108854818.537 8  84821859.67146  20714352.094                    20714360.289
        52.200          41.100
 12  6 14  2 43 30.0000000  0  8G30G31G32G25G29G12G22G14
 121663441.271 7  94802816.18444  23151789.883                    23151801.828
        44.000          27.900
 110336119.338 8  85976229.07946  20996249.016                    20996258.141
        51.500          40.900
 126305018.007 7  98419599.37643  24035055.367                    24035067.004
        42.800          23.800
 111186434.928 8  86638884.10746  21158067.695                    21158079.035
        50.200          39.900
 127311401.03915  99203743.27252  24226555.398                    24226570.031
        34.300          15.600
 127576584.590 6  99410415.91343  24277032.000                    24277042.301
        37.900          20.100
 111755833.682 8  87082584.56546  21266452.758                    21266459.879
        51.500          40.600
 108848067.079 8  84816598.78046  20713067.227                    20713075.742
        52.100          41.100
 12  6 14  2 44  0.0000000  0  8G30G31G32G25G29G12G22G14
 121556863.500 7  94719768.67444  23131509.227                    23131520.469
        43.100          28.500
 110323869.481 8  85966683.75846  20993918.219                    20993927.113
        52.000          41.500
 126223315.700 7  98355935.32744  24019508.242                    24019520.441
        43.200          25.700
 111233437.440 8  86675509.43746  21167011.938                    21167022.902
        51.000          40.300
 127251336.19715  99156939.65752  24215124.836                    24215139.293
        33.700          14.800
 127677576.477 6  99489110.82243  24296250.453                    24296261.184
        37.700          20.100
 111828114.168 8  87138906.93746  21280206.852                    21280214.320
        51.000          39.700
 108841570.411 8  84811536.42746  20711831.328                    20711839.336
        52.400          41.400
